[
  {
    "objectId": 2539,
    "cityName": "Juba",
    "adminName": "Central Equatoria",
    "countryName": "South Sudan",
    "countryCode": "OD",
    "status": "National and provincial capital",
    "longitude": 31.597118555171193,
    "latitude": 4.84406077135152,
    "popRank": 4,
    "popClass": 250,
    "portId": "000 to 499"
  },
  {
    "objectId": 2538,
    "cityName": "Invercargill",
    "adminName": "Southland",
    "countryName": "New Zealand",
    "countryCode": "NZ",
    "status": "Provincial capital",
    "longitude": 168.37299943132612,
    "latitude": -46.4130000286757,
    "popRank": 7,
    "popClass": "Less than 50",
    "portId": "000"
  },
  {
    "objectId": 2537,
    "cityName": "Dunedin",
    "adminName": "Otago",
    "countryName": "New Zealand",
    "countryCode": "NZ",
    "status": "Provincial capital",
    "longitude": 170.47400429276027,
    "latitude": -45.88399791933014,
    "popRank": 5,
    "popClass": 100,
    "portId": "000 to 249"
  },
  {
    "objectId": 2536,
    "cityName": "Christchurch",
    "adminName": "Canterbury",
    "countryName": "New Zealand",
    "countryCode": "NZ",
    "status": "Provincial capital",
    "longitude": 172.63800034352923,
    "latitude": -43.52400004407298,
    "popRank": 4,
    "popClass": 250,
    "portId": "000 to 499"
  },
  {
    "objectId": 2535,
    "cityName": "Greymouth",
    "adminName": "Westland",
    "countryName": "New Zealand",
    "countryCode": "NZ",
    "status": "Provincial capital",
    "longitude": 171.2070004253916,
    "latitude": -42.47199907608136,
    "popRank": 7,
    "popClass": "Less than 50",
    "portId": "000"
  },
  {
    "objectId": 2534,
    "cityName": "Nelson",
    "adminName": "Nelson-Marlborough",
    "countryName": "New Zealand",
    "countryCode": "NZ",
    "status": "Provincial capital",
    "longitude": 173.24800240140607,
    "latitude": -41.29700403333523,
    "popRank": 7,
    "popClass": "Less than 50",
    "portId": "000"
  },
  {
    "objectId": 2533,
    "cityName": "New Plymouth",
    "adminName": "Taranaki",
    "countryName": "New Zealand",
    "countryCode": "NZ",
    "status": "Provincial capital",
    "longitude": 174.07800042143177,
    "latitude": -39.06999892099623,
    "popRank": 7,
    "popClass": "Less than 50",
    "portId": "000"
  },
  {
    "objectId": 2532,
    "cityName": "Gisborne",
    "adminName": "East Cape",
    "countryName": "New Zealand",
    "countryCode": "NZ",
    "status": "Provincial capital",
    "longitude": 178.01601340107825,
    "latitude": -38.65899592764033,
    "popRank": 7,
    "popClass": "Less than 50",
    "portId": "000"
  },
  {
    "objectId": 2531,
    "cityName": "Hamilton",
    "adminName": "Waikato",
    "countryName": "New Zealand",
    "countryCode": "NZ",
    "status": "Provincial capital",
    "longitude": 175.2729933369562,
    "latitude": -37.77599696677678,
    "popRank": 5,
    "popClass": 100,
    "portId": "000 to 249"
  },
  {
    "objectId": 2530,
    "cityName": "Tauranga",
    "adminName": "Bay of Plenty",
    "countryName": "New Zealand",
    "countryCode": "NZ",
    "status": "Provincial capital",
    "longitude": 176.15500237457132,
    "latitude": -37.700001078611585,
    "popRank": 5,
    "popClass": 100,
    "portId": "000 to 249"
  },
  {
    "objectId": 2529,
    "cityName": "Auckland",
    "adminName": "Auckland",
    "countryName": "New Zealand",
    "countryCode": "NZ",
    "status": "Provincial capital",
    "longitude": 174.76100129292473,
    "latitude": -36.90399604989389,
    "popRank": 4,
    "popClass": 250,
    "portId": "000 to 499"
  },
  {
    "objectId": 2528,
    "cityName": "Whangarei",
    "adminName": "Northland",
    "countryName": "New Zealand",
    "countryCode": "NZ",
    "status": "Provincial capital",
    "longitude": 174.31598743602558,
    "latitude": -35.721000037716216,
    "popRank": 6,
    "popClass": 50,
    "portId": "000 to 99"
  },
  {
    "objectId": 2527,
    "cityName": "Yaren",
    "adminName": "Nauru",
    "countryName": "Nauru",
    "countryCode": "NR",
    "status": "National capital",
    "longitude": 166.91670037139244,
    "latitude": -0.5166989599046621,
    "popRank": 7,
    "popClass": "Less than 50",
    "portId": "000"
  },
  {
    "objectId": 2526,
    "cityName": "Noumea",
    "adminName": "New Caledonia",
    "countryName": "New Caledonia",
    "countryCode": "NC",
    "status": "National and provincial capital",
    "longitude": 165.5000013855865,
    "latitude": -21.500000946884306,
    "popRank": 6,
    "popClass": 50,
    "portId": "000 to 99"
  },
  {
    "objectId": 2525,
    "cityName": "Suva",
    "adminName": "Fiji",
    "countryName": "Fiji",
    "countryCode": "FJ",
    "status": "National capital",
    "longitude": 178.44772535049535,
    "latitude": -18.134531971469723,
    "popRank": 6,
    "popClass": 50,
    "portId": "000 to 99"
  },
  {
    "objectId": 2524,
    "cityName": "Port Vila",
    "adminName": "Vanuatu",
    "countryName": "Vanuatu",
    "countryCode": "NH",
    "status": "National capital",
    "longitude": 168.3209973498543,
    "latitude": -17.739999070248402,
    "popRank": 7,
    "popClass": "Less than 50",
    "portId": "000"
  },
  {
    "objectId": 2523,
    "cityName": "Honiara",
    "adminName": "Solomon Is.",
    "countryName": "Solomon Is.",
    "countryCode": "BP",
    "status": "National capital",
    "longitude": 159.95178044148585,
    "latitude": -9.433845005639172,
    "popRank": 6,
    "popClass": 50,
    "portId": "000 to 99"
  },
  {
    "objectId": 2522,
    "cityName": "Funafuti",
    "adminName": "Tuvalu",
    "countryName": "Tuvalu",
    "countryCode": "TV",
    "status": "National capital",
    "longitude": 179.22188736363637,
    "latitude": -8.536499935405013,
    "popRank": 7,
    "popClass": "Less than 50",
    "portId": "000"
  },
  {
    "objectId": 2521,
    "cityName": "Port Moresby",
    "adminName": "National Capital",
    "countryName": "Papua New Guinea",
    "countryCode": "PP",
    "status": "National capital and provincial capital enclave",
    "longitude": 147.14794832424772,
    "latitude": -9.497187020331216,
    "popRank": 4,
    "popClass": 250,
    "portId": "000 to 499"
  },
  {
    "objectId": 2520,
    "cityName": "Alotau",
    "adminName": "Milne Bay",
    "countryName": "Papua New Guinea",
    "countryCode": "PP",
    "status": "Provincial capital",
    "longitude": 150.45000329957858,
    "latitude": -10.305998994906686,
    "popRank": 7,
    "popClass": "Less than 50",
    "portId": "000"
  },
  {
    "objectId": 2519,
    "cityName": "Popondetta",
    "adminName": "Northern",
    "countryName": "Papua New Guinea",
    "countryCode": "PP",
    "status": "Provincial capital",
    "longitude": 148.24000841803726,
    "latitude": -8.768997029609737,
    "popRank": 7,
    "popClass": "Less than 50",
    "portId": "000"
  },
  {
    "objectId": 2518,
    "cityName": "Lae",
    "adminName": "Morobe",
    "countryName": "Papua New Guinea",
    "countryCode": "PP",
    "status": "Provincial capital",
    "longitude": 146.99099733362286,
    "latitude": -6.723998954196451,
    "popRank": 6,
    "popClass": 50,
    "portId": "000 to 99"
  },
  {
    "objectId": 2517,
    "cityName": "Arawa",
    "adminName": "Northern Solomons",
    "countryName": "Papua New Guinea",
    "countryCode": "PP",
    "status": "Provincial capital",
    "longitude": 155.56599035880149,
    "latitude": -6.228000078394133,
    "popRank": 7,
    "popClass": "Less than 50",
    "portId": "000"
  },
  {
    "objectId": 2516,
    "cityName": "Kimbe",
    "adminName": "West New Britain",
    "countryName": "Papua New Guinea",
    "countryCode": "PP",
    "status": "Provincial capital",
    "longitude": 150.14301340528385,
    "latitude": -5.550002936300014,
    "popRank": 7,
    "popClass": "Less than 50",
    "portId": "000"
  },
  {
    "objectId": 2515,
    "cityName": "Rabaul",
    "adminName": "East New Britain",
    "countryName": "Papua New Guinea",
    "countryCode": "PP",
    "status": "Provincial capital",
    "longitude": 152.17000239053337,
    "latitude": -4.204997925458521,
    "popRank": 7,
    "popClass": "Less than 50",
    "portId": "000"
  },
  {
    "objectId": 2514,
    "cityName": "Kavieng",
    "adminName": "New Ireland",
    "countryName": "Papua New Guinea",
    "countryCode": "PP",
    "status": "Provincial capital",
    "longitude": 150.8066733741249,
    "latitude": -2.5668179271473273,
    "popRank": 7,
    "popClass": "Less than 50",
    "portId": "000"
  },
  {
    "objectId": 2513,
    "cityName": "Lorengau",
    "adminName": "Manus",
    "countryName": "Papua New Guinea",
    "countryCode": "PP",
    "status": "Provincial capital",
    "longitude": 147.27999634095633,
    "latitude": -2.0320020458919474,
    "popRank": 7,
    "popClass": "Less than 50",
    "portId": "000"
  },
  {
    "objectId": 2512,
    "cityName": "Townsville",
    "adminName": "Queensland",
    "countryName": "Australia",
    "countryCode": "AS",
    "status": "Other",
    "longitude": 146.82999629592635,
    "latitude": -19.29999598287272,
    "popRank": 5,
    "popClass": 100,
    "portId": "000 to 249"
  },
  {
    "objectId": 2511,
    "cityName": "Cairns",
    "adminName": "Queensland",
    "countryName": "Australia",
    "countryCode": "AS",
    "status": "Other",
    "longitude": 145.7100093453187,
    "latitude": -16.84999799931935,
    "popRank": 5,
    "popClass": 100,
    "portId": "000 to 249"
  },
  {
    "objectId": 2510,
    "cityName": "Daru",
    "adminName": "Western",
    "countryName": "Papua New Guinea",
    "countryCode": "PP",
    "status": "Provincial capital",
    "longitude": 143.23372229672086,
    "latitude": -9.109152000466255,
    "popRank": 7,
    "popClass": "Less than 50",
    "portId": "000"
  },
  {
    "objectId": 2509,
    "cityName": "Kerema",
    "adminName": "Gulf",
    "countryName": "Papua New Guinea",
    "countryCode": "PP",
    "status": "Provincial capital",
    "longitude": 145.83799837883802,
    "latitude": -7.927001940753638,
    "popRank": 7,
    "popClass": "Less than 50",
    "portId": "000"
  },
  {
    "objectId": 2508,
    "cityName": "Mendi",
    "adminName": "Southern Highlands",
    "countryName": "Papua New Guinea",
    "countryCode": "PP",
    "status": "Provincial capital",
    "longitude": 143.65198836787258,
    "latitude": -6.141996069496765,
    "popRank": 7,
    "popClass": "Less than 50",
    "portId": "000"
  },
  {
    "objectId": 2507,
    "cityName": "Goroka",
    "adminName": "Eastern Highlands",
    "countryName": "Papua New Guinea",
    "countryCode": "PP",
    "status": "Provincial capital",
    "longitude": 145.38699037284076,
    "latitude": -6.087995938325577,
    "popRank": 7,
    "popClass": "Less than 50",
    "portId": "000"
  },
  {
    "objectId": 2506,
    "cityName": "Kundiawa",
    "adminName": "Chimbu",
    "countryName": "Papua New Guinea",
    "countryCode": "PP",
    "status": "Provincial capital",
    "longitude": 144.9600124144582,
    "latitude": -6.022997928657377,
    "popRank": 7,
    "popClass": "Less than 50",
    "portId": "000"
  },
  {
    "objectId": 2505,
    "cityName": "Mount Hagen",
    "adminName": "Western Highlands",
    "countryName": "Papua New Guinea",
    "countryCode": "PP",
    "status": "Provincial capital",
    "longitude": 144.2199962995262,
    "latitude": -5.865003067111234,
    "popRank": 7,
    "popClass": "Less than 50",
    "portId": "000"
  },
  {
    "objectId": 2504,
    "cityName": "Hobart",
    "adminName": "Tasmania",
    "countryName": "Australia",
    "countryCode": "AS",
    "status": "Provincial capital",
    "longitude": 147.2910033210546,
    "latitude": -42.85099802622737,
    "popRank": 7,
    "popClass": "Less than 50",
    "portId": "000"
  },
  {
    "objectId": 2503,
    "cityName": "Melbourne",
    "adminName": "Victoria",
    "countryName": "Australia",
    "countryCode": "AS",
    "status": "Other",
    "longitude": 145.0751043135256,
    "latitude": -37.85295596983765,
    "popRank": 2,
    "popClass": 1,
    "portId": "000"
  },
  {
    "objectId": 2502,
    "cityName": "Canberra",
    "adminName": "Australian Capital Territory",
    "countryName": "Australia",
    "countryCode": "AS",
    "status": "National and provincial capital",
    "longitude": 149.04200743036952,
    "latitude": -35.350002057001745,
    "popRank": 4,
    "popClass": 250,
    "portId": "000 to 499"
  },
  {
    "objectId": 2501,
    "cityName": "Adelaide",
    "adminName": "South Australia",
    "countryName": "Australia",
    "countryCode": "AS",
    "status": "Provincial capital",
    "longitude": 138.52082728453283,
    "latitude": -34.81167593637049,
    "popRank": 2,
    "popClass": 1,
    "portId": "000"
  },
  {
    "objectId": 2500,
    "cityName": "Sydney",
    "adminName": "New South Wales",
    "countryName": "Australia",
    "countryCode": "AS",
    "status": "Other",
    "longitude": 151.02819939818542,
    "latitude": -33.889769946943375,
    "popRank": 2,
    "popClass": 1,
    "portId": "000"
  },
  {
    "objectId": 2499,
    "cityName": "Newcastle",
    "adminName": "New South Wales",
    "countryName": "Australia",
    "countryCode": "AS",
    "status": "Other",
    "longitude": 151.7795554463377,
    "latitude": -32.92795806958657,
    "popRank": 4,
    "popClass": 250,
    "portId": "000 to 499"
  },
  {
    "objectId": 2498,
    "cityName": "Brisbane",
    "adminName": "Queensland",
    "countryName": "Australia",
    "countryCode": "AS",
    "status": "Provincial capital",
    "longitude": 153.02600136855315,
    "latitude": -27.453995931682037,
    "popRank": 3,
    "popClass": 500,
    "portId": "000 to 999"
  },
  {
    "objectId": 2497,
    "cityName": "Rockhampton",
    "adminName": "Queensland",
    "countryName": "Australia",
    "countryCode": "AS",
    "status": "Other",
    "longitude": 150.48000035697143,
    "latitude": -23.429996980857023,
    "popRank": 6,
    "popClass": 50,
    "portId": "000 to 99"
  },
  {
    "objectId": 2496,
    "cityName": "Wellington",
    "adminName": "Wellington",
    "countryName": "New Zealand",
    "countryCode": "NZ",
    "status": "National and provincial capital",
    "longitude": 174.8072164108394,
    "latitude": -41.33484005165742,
    "popRank": 4,
    "popClass": 250,
    "portId": "000 to 499"
  },
  {
    "objectId": 2495,
    "cityName": "Wanganui",
    "adminName": "Wanganui-Manawatu",
    "countryName": "New Zealand",
    "countryCode": "NZ",
    "status": "Provincial capital",
    "longitude": 175.03499738624478,
    "latitude": -39.930002934532375,
    "popRank": 7,
    "popClass": "Less than 50",
    "portId": "000"
  },
  {
    "objectId": 2494,
    "cityName": "Hastings",
    "adminName": "Hawke's Bay",
    "countryName": "New Zealand",
    "countryCode": "NZ",
    "status": "Provincial capital",
    "longitude": 176.8410003206133,
    "latitude": -39.63999596623163,
    "popRank": 6,
    "popClass": 50,
    "portId": "000 to 99"
  },
  {
    "objectId": 2493,
    "cityName": "Kingston",
    "adminName": "Norfolk I.",
    "countryName": "Norfolk I.",
    "countryCode": "NF",
    "status": "National and provincial capital",
    "longitude": 167.9629502857811,
    "latitude": -29.06377198378607,
    "popRank": 7,
    "popClass": "Less than 50",
    "portId": "000"
  },
  {
    "objectId": 2492,
    "cityName": "Wabag",
    "adminName": "Enga",
    "countryName": "Papua New Guinea",
    "countryCode": "PP",
    "status": "Provincial capital",
    "longitude": 143.7180034401093,
    "latitude": -5.490000050880353,
    "popRank": 7,
    "popClass": "Less than 50",
    "portId": "000"
  },
  {
    "objectId": 2491,
    "cityName": "Madang",
    "adminName": "Madang",
    "countryName": "Papua New Guinea",
    "countryCode": "PP",
    "status": "Provincial capital",
    "longitude": 145.7829724144644,
    "latitude": -5.23125906867008,
    "popRank": 7,
    "popClass": "Less than 50",
    "portId": "000"
  },
  {
    "objectId": 2490,
    "cityName": "Wewak",
    "adminName": "East Sepik",
    "countryName": "Papua New Guinea",
    "countryCode": "PP",
    "status": "Provincial capital",
    "longitude": 143.62000236238154,
    "latitude": -3.564998975672475,
    "popRank": 7,
    "popClass": "Less than 50",
    "portId": "000"
  },
  {
    "objectId": 2489,
    "cityName": "Vanimo",
    "adminName": "West Sepik",
    "countryName": "Papua New Guinea",
    "countryCode": "PP",
    "status": "Provincial capital",
    "longitude": 141.30399633207972,
    "latitude": -2.6900009842404935,
    "popRank": 7,
    "popClass": "Less than 50",
    "portId": "000"
  },
  {
    "objectId": 2488,
    "cityName": "Jayapura",
    "adminName": "Irian Jaya",
    "countryName": "Indonesia",
    "countryCode": "ID",
    "status": "Provincial capital",
    "longitude": 140.71898743671326,
    "latitude": -2.5419960402240287,
    "popRank": 5,
    "popClass": 100,
    "portId": "000 to 249"
  },
  {
    "objectId": 2487,
    "cityName": "Kupang",
    "adminName": "Nusa Tenggara Timur",
    "countryName": "Indonesia",
    "countryCode": "ID",
    "status": "Provincial capital",
    "longitude": 123.58728931648535,
    "latitude": -10.172465927841708,
    "popRank": 4,
    "popClass": 250,
    "portId": "000 to 499"
  },
  {
    "objectId": 2486,
    "cityName": "Denpasar",
    "adminName": "Bali",
    "countryName": "Indonesia",
    "countryCode": "ID",
    "status": "Provincial capital",
    "longitude": 115.21727130172346,
    "latitude": -8.706689949721419,
    "popRank": 4,
    "popClass": 250,
    "portId": "000 to 499"
  },
  {
    "objectId": 2485,
    "cityName": "Mataram",
    "adminName": "Nusa Tenggara Barat",
    "countryName": "Indonesia",
    "countryCode": "ID",
    "status": "Provincial capital",
    "longitude": 116.13699936071383,
    "latitude": -8.589996003350723,
    "popRank": 4,
    "popClass": 250,
    "portId": "000 to 499"
  },
  {
    "objectId": 2484,
    "cityName": "Surabaja",
    "adminName": "Jawa Timur",
    "countryName": "Indonesia",
    "countryCode": "ID",
    "status": "Other",
    "longitude": 112.68437444465118,
    "latitude": -7.399998046591184,
    "popRank": 2,
    "popClass": 1,
    "portId": "000"
  },
  {
    "objectId": 2483,
    "cityName": "Bandjermasin",
    "adminName": "Kalimantan Selatan",
    "countryName": "Indonesia",
    "countryCode": "ID",
    "status": "Provincial capital",
    "longitude": 114.58899935143617,
    "latitude": -3.3280020498107783,
    "popRank": 3,
    "popClass": 500,
    "portId": "000 to 999"
  },
  {
    "objectId": 2482,
    "cityName": "Palangkaraya",
    "adminName": "Kalimantan Tengah",
    "countryName": "Indonesia",
    "countryCode": "ID",
    "status": "Provincial capital",
    "longitude": 113.93334035202666,
    "latitude": -2.266667968932219,
    "popRank": 7,
    "popClass": "Less than 50",
    "portId": "000"
  },
  {
    "objectId": 2481,
    "cityName": "Balikpapan",
    "adminName": "Kalimantan Timur",
    "countryName": "Indonesia",
    "countryCode": "ID",
    "status": "Other",
    "longitude": 116.85999630873053,
    "latitude": -1.209996059180159,
    "popRank": 4,
    "popClass": 250,
    "portId": "000 to 499"
  },
  {
    "objectId": 2480,
    "cityName": "Samarinda",
    "adminName": "Kalimantan Timur",
    "countryName": "Indonesia",
    "countryCode": "ID",
    "status": "Provincial capital",
    "longitude": 117.1539993764301,
    "latitude": -0.502002025176848,
    "popRank": 4,
    "popClass": 250,
    "portId": "000 to 499"
  },
  {
    "objectId": 2479,
    "cityName": "Birdum",
    "adminName": "Northern Territory",
    "countryName": "Australia",
    "countryCode": "AS",
    "status": "Other",
    "longitude": 133.21999828782097,
    "latitude": -15.749999985372336,
    "popRank": 7,
    "popClass": "Less than 50",
    "portId": "000"
  },
  {
    "objectId": 2478,
    "cityName": "Darwin",
    "adminName": "Northern Territory",
    "countryName": "Australia",
    "countryCode": "AS",
    "status": "Provincial capital",
    "longitude": 130.83200140487034,
    "latitude": -12.412998005439041,
    "popRank": 6,
    "popClass": 50,
    "portId": "000 to 99"
  },
  {
    "objectId": 2477,
    "cityName": "Dili",
    "adminName": "Timor Leste",
    "countryName": "Timor Leste",
    "countryCode": "TT",
    "status": "National capital",
    "longitude": 125.5809963937098,
    "latitude": -8.570996989938493,
    "popRank": 5,
    "popClass": 100,
    "portId": "000 to 249"
  },
  {
    "objectId": 2476,
    "cityName": "Makassar",
    "adminName": "Sulawesi Selatan",
    "countryName": "Indonesia",
    "countryCode": "ID",
    "status": "Other",
    "longitude": 119.72278831528169,
    "latitude": -5.190425975798752,
    "popRank": 2,
    "popClass": 1,
    "portId": "000"
  },
  {
    "objectId": 2475,
    "cityName": "Kendari",
    "adminName": "Sulawesi Tenggara",
    "countryName": "Indonesia",
    "countryCode": "ID",
    "status": "Provincial capital",
    "longitude": 122.5883614402069,
    "latitude": -3.955436983750527,
    "popRank": 7,
    "popClass": "Less than 50",
    "portId": "000"
  },
  {
    "objectId": 2474,
    "cityName": "Ambon",
    "adminName": "Maluku",
    "countryName": "Indonesia",
    "countryCode": "ID",
    "status": "Provincial capital",
    "longitude": 128.19999638439126,
    "latitude": -3.716667065965734,
    "popRank": 4,
    "popClass": 250,
    "portId": "000 to 499"
  },
  {
    "objectId": 2473,
    "cityName": "Palu",
    "adminName": "Sulawesi Tengah",
    "countryName": "Indonesia",
    "countryCode": "ID",
    "status": "Provincial capital",
    "longitude": 119.85100240657735,
    "latitude": -0.8990009638853755,
    "popRank": 4,
    "popClass": 250,
    "portId": "000 to 499"
  },
  {
    "objectId": 2472,
    "cityName": "Jakarta",
    "adminName": "Jakarta Raya",
    "countryName": "Indonesia",
    "countryCode": "ID",
    "status": "National and provincial capital",
    "longitude": 106.80000339972676,
    "latitude": -6.1666650495191035,
    "popRank": 1,
    "popClass": 5,
    "portId": "000"
  },
  {
    "objectId": 2471,
    "cityName": "Tanjungkarang-Telukbetung",
    "adminName": "Lampung",
    "countryName": "Indonesia",
    "countryCode": "ID",
    "status": "Provincial capital",
    "longitude": 105.25400144014858,
    "latitude": -5.408999936865415,
    "popRank": 3,
    "popClass": 500,
    "portId": "000 to 999"
  },
  {
    "objectId": 2470,
    "cityName": "Bengkulu",
    "adminName": "Bengkulu",
    "countryName": "Indonesia",
    "countryCode": "ID",
    "status": "Provincial capital",
    "longitude": 102.2666763608137,
    "latitude": -3.7999980173184484,
    "popRank": 4,
    "popClass": 250,
    "portId": "000 to 499"
  },
  {
    "objectId": 2469,
    "cityName": "Palembang",
    "adminName": "Sumatera Selatan",
    "countryName": "Indonesia",
    "countryCode": "ID",
    "status": "Provincial capital",
    "longitude": 104.7570033740129,
    "latitude": -2.9909970604043217,
    "popRank": 2,
    "popClass": 1,
    "portId": "000"
  },
  {
    "objectId": 2468,
    "cityName": "Jambi",
    "adminName": "Jambi",
    "countryName": "Indonesia",
    "countryCode": "ID",
    "status": "Provincial capital",
    "longitude": 103.61667633042008,
    "latitude": -1.6000019894244242,
    "popRank": 4,
    "popClass": 250,
    "portId": "000 to 499"
  },
  {
    "objectId": 2467,
    "cityName": "Pontianak",
    "adminName": "Kalimantan Barat",
    "countryName": "Indonesia",
    "countryCode": "ID",
    "status": "Provincial capital",
    "longitude": 109.33900230124297,
    "latitude": -0.02300394760367615,
    "popRank": 4,
    "popClass": 250,
    "portId": "000 to 499"
  },
  {
    "objectId": 2466,
    "cityName": "The Settlement",
    "adminName": "Christmas I.",
    "countryName": "Christmas I.",
    "countryCode": "KT",
    "status": "National and provincial capital",
    "longitude": 105.71670037020696,
    "latitude": -10.416698957662849,
    "popRank": 7,
    "popClass": "Less than 50",
    "portId": "000"
  },
  {
    "objectId": 2465,
    "cityName": "West Island",
    "adminName": "Cocos Is.",
    "countryName": "Cocos Is.",
    "countryCode": "CK",
    "status": "National and provincial capital",
    "longitude": 96.8260773834108,
    "latitude": -12.157532937743374,
    "popRank": 7,
    "popClass": "Less than 50",
    "portId": "000"
  },
  {
    "objectId": 2464,
    "cityName": "Fremantle",
    "adminName": "Western Australia",
    "countryName": "Australia",
    "countryCode": "AS",
    "status": "Other",
    "longitude": 115.9345713092936,
    "latitude": -32.044166938447134,
    "popRank": 7,
    "popClass": "Less than 50",
    "portId": "000"
  },
  {
    "objectId": 2463,
    "cityName": "Perth",
    "adminName": "Western Australia",
    "countryName": "Australia",
    "countryCode": "AS",
    "status": "Provincial capital",
    "longitude": 115.85300441374639,
    "latitude": -31.956003036831785,
    "popRank": 2,
    "popClass": 1,
    "portId": "000"
  },
  {
    "objectId": 2462,
    "cityName": "Alice Springs",
    "adminName": "Northern Territory",
    "countryName": "Australia",
    "countryCode": "AS",
    "status": "Other",
    "longitude": 133.9299903715237,
    "latitude": -23.630004006345267,
    "popRank": 7,
    "popClass": "Less than 50",
    "portId": "000"
  },
  {
    "objectId": 2461,
    "cityName": "Yogyakarta",
    "adminName": "Yogyakarta",
    "countryName": "Indonesia",
    "countryCode": "ID",
    "status": "Provincial capital",
    "longitude": 110.36899841063932,
    "latitude": -7.796996985299687,
    "popRank": 3,
    "popClass": 500,
    "portId": "000 to 999"
  },
  {
    "objectId": 2460,
    "cityName": "Semarang",
    "adminName": "Jawa Tengah",
    "countryName": "Indonesia",
    "countryCode": "ID",
    "status": "Provincial capital",
    "longitude": 110.42600438699353,
    "latitude": -6.97100400079038,
    "popRank": 2,
    "popClass": 1,
    "portId": "000"
  },
  {
    "objectId": 2459,
    "cityName": "Bandung",
    "adminName": "Jawa Barat",
    "countryName": "Indonesia",
    "countryCode": "ID",
    "status": "Provincial capital",
    "longitude": 107.60699737082389,
    "latitude": -6.91199997473675,
    "popRank": 2,
    "popClass": 1,
    "portId": "000"
  },
  {
    "objectId": 2458,
    "cityName": "Padang",
    "adminName": "Sumatera Barat",
    "countryName": "Indonesia",
    "countryCode": "ID",
    "status": "Provincial capital",
    "longitude": 100.35199832174122,
    "latitude": -0.9539999544225819,
    "popRank": 3,
    "popClass": 500,
    "portId": "000 to 999"
  },
  {
    "objectId": 2457,
    "cityName": "Fianarantsoa",
    "adminName": "Fianarantsoa",
    "countryName": "Madagascar",
    "countryCode": "MA",
    "status": "Provincial capital",
    "longitude": 47.0780013377846,
    "latitude": -21.459995934242883,
    "popRank": 5,
    "popClass": 100,
    "portId": "000 to 249"
  },
  {
    "objectId": 2456,
    "cityName": "Port Louis",
    "adminName": "Mauritius",
    "countryName": "Mauritius",
    "countryCode": "MP",
    "status": "National capital",
    "longitude": 57.49599629930642,
    "latitude": -20.165004056775008,
    "popRank": 5,
    "popClass": 100,
    "portId": "000 to 249"
  },
  {
    "objectId": 2455,
    "cityName": "Antananarivo",
    "adminName": "Antananarivo",
    "countryName": "Madagascar",
    "countryCode": "MA",
    "status": "National and provincial capital",
    "longitude": 47.52800138281461,
    "latitude": -18.90800093904663,
    "popRank": 2,
    "popClass": 1,
    "portId": "000"
  },
  {
    "objectId": 2454,
    "cityName": "Toamasina",
    "adminName": "Toamasina",
    "countryName": "Madagascar",
    "countryCode": "MA",
    "status": "Provincial capital",
    "longitude": 49.383297431156194,
    "latitude": -18.1666980231818,
    "popRank": 5,
    "popClass": 100,
    "portId": "000 to 249"
  },
  {
    "objectId": 2453,
    "cityName": "Mahajanga",
    "adminName": "Mahajanga",
    "countryName": "Madagascar",
    "countryCode": "MA",
    "status": "Provincial capital",
    "longitude": 46.30764644170375,
    "latitude": -15.713928022855644,
    "popRank": 5,
    "popClass": 100,
    "portId": "000 to 249"
  },
  {
    "objectId": 2452,
    "cityName": "Antsiranana",
    "adminName": "Antsiranana",
    "countryName": "Madagascar",
    "countryCode": "MA",
    "status": "Provincial capital",
    "longitude": 49.30958736877352,
    "latitude": -12.263382078001706,
    "popRank": 6,
    "popClass": 50,
    "portId": "000 to 99"
  },
  {
    "objectId": 2451,
    "cityName": "Victoria",
    "adminName": "Seychelles",
    "countryName": "Seychelles",
    "countryCode": "SE",
    "status": "National capital",
    "longitude": 55.445004405762226,
    "latitude": -4.616999943664108,
    "popRank": 7,
    "popClass": "Less than 50",
    "portId": "000"
  },
  {
    "objectId": 2450,
    "cityName": "Saint-Denis",
    "adminName": "Reunion",
    "countryName": "Reunion",
    "countryCode": "RE",
    "status": "National and provincial capital",
    "longitude": 55.449999364527095,
    "latitude": -20.86669796239453,
    "popRank": 5,
    "popClass": 100,
    "portId": "000 to 249"
  },
  {
    "objectId": 2449,
    "cityName": "Mamoutzou",
    "adminName": "Mayotte",
    "countryName": "Mayotte",
    "countryCode": "MF",
    "status": "National and provincial capital",
    "longitude": 45.283302426682326,
    "latitude": -12.783302940589403,
    "popRank": 6,
    "popClass": 50,
    "portId": "000 to 99"
  },
  {
    "objectId": 2448,
    "cityName": "Pietermaritzburg (Ulundi)",
    "adminName": "KwaZulu/Natal",
    "countryName": "South Africa",
    "countryCode": "SF",
    "status": "Provincial capital",
    "longitude": 30.383001355104682,
    "latitude": -29.60099995485582,
    "popRank": 3,
    "popClass": 500,
    "portId": "000 to 999"
  },
  {
    "objectId": 2447,
    "cityName": "Qacha's Nek",
    "adminName": "Qacha's Nek",
    "countryName": "Lesotho",
    "countryCode": "LT",
    "status": "Provincial capital",
    "longitude": 28.70199931582403,
    "latitude": -30.117266938251635,
    "popRank": 7,
    "popClass": "Less than 50",
    "portId": "000"
  },
  {
    "objectId": 2446,
    "cityName": "Durban",
    "adminName": "KwaZulu/Natal",
    "countryName": "South Africa",
    "countryCode": "SF",
    "status": "Other",
    "longitude": 30.942189338698082,
    "latitude": -29.836376961179067,
    "popRank": 2,
    "popClass": 1,
    "portId": "000"
  },
  {
    "objectId": 2445,
    "cityName": "Mokhotlong",
    "adminName": "Mokhotlong",
    "countryName": "Lesotho",
    "countryCode": "LT",
    "status": "Provincial capital",
    "longitude": 29.078001356904597,
    "latitude": -29.291004049894365,
    "popRank": 7,
    "popClass": "Less than 50",
    "portId": "000"
  },
  {
    "objectId": 2444,
    "cityName": "Butha-Buthe",
    "adminName": "Butha-Buthe",
    "countryName": "Lesotho",
    "countryCode": "LT",
    "status": "Provincial capital",
    "longitude": 28.250001386578276,
    "latitude": -28.749995935600893,
    "popRank": 7,
    "popClass": "Less than 50",
    "portId": "000"
  },
  {
    "objectId": 2443,
    "cityName": "Richards Bay",
    "adminName": "KwaZulu/Natal",
    "countryName": "South Africa",
    "countryCode": "SF",
    "status": "Other",
    "longitude": 32.08627832231218,
    "latitude": -28.783961953072478,
    "popRank": 4,
    "popClass": 250,
    "portId": "000 to 499"
  },
  {
    "objectId": 2442,
    "cityName": "Pietersburg (Polokwane)",
    "adminName": "Northern",
    "countryName": "South Africa",
    "countryCode": "SF",
    "status": "Provincial capital",
    "longitude": 29.449998362468765,
    "latitude": -23.892003030834992,
    "popRank": 5,
    "popClass": 100,
    "portId": "000 to 249"
  },
  {
    "objectId": 2441,
    "cityName": "Pretoria",
    "adminName": "Gauteng",
    "countryName": "South Africa",
    "countryCode": "SF",
    "status": "National capital",
    "longitude": 28.217997343368406,
    "latitude": -25.730999931661824,
    "popRank": 2,
    "popClass": 1,
    "portId": "000"
  },
  {
    "objectId": 2440,
    "cityName": "Xai-Xai",
    "adminName": "Gaza",
    "countryName": "Mozambique",
    "countryCode": "MZ",
    "status": "Provincial capital",
    "longitude": 33.64000241135642,
    "latitude": -25.0409969501034,
    "popRank": 5,
    "popClass": 100,
    "portId": "000 to 249"
  },
  {
    "objectId": 2439,
    "cityName": "Moyeni",
    "adminName": "Quthing",
    "countryName": "Lesotho",
    "countryCode": "LT",
    "status": "Provincial capital",
    "longitude": 27.716004318467863,
    "latitude": -30.41099993661964,
    "popRank": 7,
    "popClass": "Less than 50",
    "portId": "000"
  },
  {
    "objectId": 2438,
    "cityName": "Mohales Hoek",
    "adminName": "Mohale's Hoek",
    "countryName": "Lesotho",
    "countryCode": "LT",
    "status": "Provincial capital",
    "longitude": 27.479997315854632,
    "latitude": -30.158999931260883,
    "popRank": 7,
    "popClass": "Less than 50",
    "portId": "000"
  },
  {
    "objectId": 2437,
    "cityName": "Mafeteng",
    "adminName": "Mafeteng",
    "countryName": "Lesotho",
    "countryCode": "LT",
    "status": "Provincial capital",
    "longitude": 27.25200038427417,
    "latitude": -29.83100403773693,
    "popRank": 6,
    "popClass": 50,
    "portId": "000 to 99"
  },
  {
    "objectId": 2436,
    "cityName": "Maseru",
    "adminName": "Maseru",
    "countryName": "Lesotho",
    "countryCode": "LT",
    "status": "National and provincial capital",
    "longitude": 27.49200332080258,
    "latitude": -29.307996077489584,
    "popRank": 5,
    "popClass": 100,
    "portId": "000 to 249"
  },
  {
    "objectId": 2435,
    "cityName": "Teyateyaneng",
    "adminName": "Berea",
    "countryName": "Lesotho",
    "countryCode": "LT",
    "status": "Provincial capital",
    "longitude": 27.753003320442588,
    "latitude": -29.15299795952522,
    "popRank": 7,
    "popClass": "Less than 50",
    "portId": "000"
  },
  {
    "objectId": 2434,
    "cityName": "Bloemfontein",
    "adminName": "Free State",
    "countryName": "South Africa",
    "countryCode": "SF",
    "status": "Provincial capital",
    "longitude": 26.225001349426922,
    "latitude": -29.117997007249897,
    "popRank": 4,
    "popClass": 250,
    "portId": "000 to 499"
  },
  {
    "objectId": 2433,
    "cityName": "Hlotse",
    "adminName": "Leribe",
    "countryName": "Lesotho",
    "countryCode": "LT",
    "status": "Provincial capital",
    "longitude": 28.05599744630584,
    "latitude": -28.878003006839084,
    "popRank": 7,
    "popClass": "Less than 50",
    "portId": "000"
  },
  {
    "objectId": 2432,
    "cityName": "Kimberley",
    "adminName": "Northern Cape",
    "countryName": "South Africa",
    "countryCode": "SF",
    "status": "Provincial capital",
    "longitude": 24.830001408414265,
    "latitude": -28.659995992788343,
    "popRank": 5,
    "popClass": 100,
    "portId": "000 to 249"
  },
  {
    "objectId": 2431,
    "cityName": "MMabatho (Mafikeng)",
    "adminName": "North West",
    "countryName": "South Africa",
    "countryCode": "SF",
    "status": "Provincial capital",
    "longitude": 25.6519982935248,
    "latitude": -25.858998066782444,
    "popRank": 6,
    "popClass": 50,
    "portId": "000 to 99"
  },
  {
    "objectId": 2430,
    "cityName": "Bisho",
    "adminName": "Eastern Cape",
    "countryName": "South Africa",
    "countryCode": "SF",
    "status": "Provincial capital",
    "longitude": 27.623142335772034,
    "latitude": -32.7614310360633,
    "popRank": 5,
    "popClass": 100,
    "portId": "000 to 249"
  },
  {
    "objectId": 2429,
    "cityName": "East London",
    "adminName": "Eastern Cape",
    "countryName": "South Africa",
    "countryCode": "SF",
    "status": "Other",
    "longitude": 27.900000303491765,
    "latitude": -33.02999992730105,
    "popRank": 7,
    "popClass": "Less than 50",
    "portId": "000"
  },
  {
    "objectId": 2428,
    "cityName": "Johannesburg",
    "adminName": "Gauteng",
    "countryName": "South Africa",
    "countryCode": "SF",
    "status": "Provincial capital",
    "longitude": 28.004310445720904,
    "latitude": -26.178957080920814,
    "popRank": 2,
    "popClass": 1,
    "portId": "000"
  },
  {
    "objectId": 2427,
    "cityName": "Lobatse",
    "adminName": "South-East",
    "countryName": "Botswana",
    "countryCode": "BC",
    "status": "Provincial capital",
    "longitude": 25.67700039215282,
    "latitude": -25.227998945793992,
    "popRank": 7,
    "popClass": "Less than 50",
    "portId": "000"
  },
  {
    "objectId": 2426,
    "cityName": "Kanye",
    "adminName": "Southern",
    "countryName": "Botswana",
    "countryCode": "BC",
    "status": "Provincial capital",
    "longitude": 25.343001413413045,
    "latitude": -24.977996990134624,
    "popRank": 7,
    "popClass": "Less than 50",
    "portId": "000"
  },
  {
    "objectId": 2425,
    "cityName": "Gaborone",
    "adminName": "South-East",
    "countryName": "Botswana",
    "countryCode": "BC",
    "status": "National capital",
    "longitude": 25.950798401533007,
    "latitude": -24.63992992660437,
    "popRank": 5,
    "popClass": 100,
    "portId": "000 to 249"
  },
  {
    "objectId": 2424,
    "cityName": "Molepolole",
    "adminName": "Kweneng",
    "countryName": "Botswana",
    "countryCode": "BC",
    "status": "Provincial capital",
    "longitude": 25.520004389972687,
    "latitude": -24.40199702516706,
    "popRank": 6,
    "popClass": 50,
    "portId": "000 to 99"
  },
  {
    "objectId": 2423,
    "cityName": "Mochudi",
    "adminName": "Kgatleng",
    "countryName": "Botswana",
    "countryCode": "BC",
    "status": "Provincial capital",
    "longitude": 26.152002370327182,
    "latitude": -24.37700402814031,
    "popRank": 7,
    "popClass": "Less than 50",
    "portId": "000"
  },
  {
    "objectId": 2422,
    "cityName": "Nelspruit",
    "adminName": "Mpumalanga",
    "countryName": "South Africa",
    "countryCode": "SF",
    "status": "Provincial capital",
    "longitude": 30.985002443549973,
    "latitude": -25.466003998106647,
    "popRank": 5,
    "popClass": 100,
    "portId": "000 to 249"
  },
  {
    "objectId": 2421,
    "cityName": "Port Elizabeth",
    "adminName": "Eastern Cape",
    "countryName": "South Africa",
    "countryCode": "SF",
    "status": "Other",
    "longitude": 25.48430129053202,
    "latitude": -33.88157105905558,
    "popRank": 3,
    "popClass": 500,
    "portId": "000 to 999"
  },
  {
    "objectId": 2420,
    "cityName": "Hlatikulu",
    "adminName": "Shiselweni",
    "countryName": "Swaziland",
    "countryCode": "WZ",
    "status": "Provincial capital",
    "longitude": 31.416696355248206,
    "latitude": -26.999999952736886,
    "popRank": 7,
    "popClass": "Less than 50",
    "portId": "000"
  },
  {
    "objectId": 2419,
    "cityName": "Manzini",
    "adminName": "Manzini",
    "countryName": "Swaziland",
    "countryCode": "WZ",
    "status": "Provincial capital",
    "longitude": 31.388004301990634,
    "latitude": -26.495001082653314,
    "popRank": 5,
    "popClass": 100,
    "portId": "000 to 249"
  },
  {
    "objectId": 2418,
    "cityName": "Siteki",
    "adminName": "Lubombo",
    "countryName": "Swaziland",
    "countryCode": "WZ",
    "status": "Provincial capital",
    "longitude": 31.95199842749392,
    "latitude": -26.454996070011916,
    "popRank": 7,
    "popClass": "Less than 50",
    "portId": "000"
  },
  {
    "objectId": 2417,
    "cityName": "Mbabane",
    "adminName": "Hhohho",
    "countryName": "Swaziland",
    "countryCode": "WZ",
    "status": "National capital",
    "longitude": 31.191300330337096,
    "latitude": -26.30338192739148,
    "popRank": 6,
    "popClass": 50,
    "portId": "000 to 99"
  },
  {
    "objectId": 2416,
    "cityName": "Maputo",
    "adminName": "Maputo",
    "countryName": "Mozambique",
    "countryCode": "MZ",
    "status": "National and provincial capital",
    "longitude": 32.57399738871743,
    "latitude": -25.962003039392613,
    "popRank": 2,
    "popClass": 1,
    "portId": "000"
  },
  {
    "objectId": 2415,
    "cityName": "Piggs Peak",
    "adminName": "Hhohho",
    "countryName": "Swaziland",
    "countryCode": "WZ",
    "status": "Provincial capital",
    "longitude": 31.247001302556015,
    "latitude": -25.961004014542908,
    "popRank": 7,
    "popClass": "Less than 50",
    "portId": "000"
  },
  {
    "objectId": 2414,
    "cityName": "Beira",
    "adminName": "Sofala",
    "countryName": "Mozambique",
    "countryCode": "MZ",
    "status": "Provincial capital",
    "longitude": 34.83600328784809,
    "latitude": -19.827000042518847,
    "popRank": 3,
    "popClass": 500,
    "portId": "000 to 999"
  },
  {
    "objectId": 2413,
    "cityName": "Quelimane",
    "adminName": "Zambezia",
    "countryName": "Mozambique",
    "countryCode": "MZ",
    "status": "Provincial capital",
    "longitude": 36.883998437810504,
    "latitude": -17.877996059016308,
    "popRank": 5,
    "popClass": 100,
    "portId": "000 to 249"
  },
  {
    "objectId": 2412,
    "cityName": "Blantyre",
    "adminName": "Southern",
    "countryName": "Malawi",
    "countryCode": "MI",
    "status": "Provincial capital",
    "longitude": 34.99399831487793,
    "latitude": -15.793002072562876,
    "popRank": 3,
    "popClass": 500,
    "portId": "000 to 999"
  },
  {
    "objectId": 2411,
    "cityName": "Nampula",
    "adminName": "Nampula",
    "countryName": "Mozambique",
    "countryCode": "MZ",
    "status": "Provincial capital",
    "longitude": 39.257001342865294,
    "latitude": -15.114995994351167,
    "popRank": 4,
    "popClass": 250,
    "portId": "000 to 499"
  },
  {
    "objectId": 2410,
    "cityName": "Lilongwe",
    "adminName": "Central",
    "countryName": "Malawi",
    "countryCode": "MI",
    "status": "National and provincial capital",
    "longitude": 33.774003300725525,
    "latitude": -13.983003038795554,
    "popRank": 3,
    "popClass": 500,
    "portId": "000 to 999"
  },
  {
    "objectId": 2409,
    "cityName": "Lichinga",
    "adminName": "Niassa",
    "countryName": "Mozambique",
    "countryCode": "MZ",
    "status": "Provincial capital",
    "longitude": 35.233299435208295,
    "latitude": -13.300002001818992,
    "popRank": 5,
    "popClass": 100,
    "portId": "000 to 249"
  },
  {
    "objectId": 2408,
    "cityName": "Mzuzu",
    "adminName": "Northern",
    "countryName": "Malawi",
    "countryCode": "MI",
    "status": "Provincial capital",
    "longitude": 34.02299729541758,
    "latitude": -11.465001034907303,
    "popRank": 7,
    "popClass": "Less than 50",
    "portId": "000"
  },
  {
    "objectId": 2407,
    "cityName": "Singida",
    "adminName": "Singida",
    "countryName": "Tanzania",
    "countryCode": "TZ",
    "status": "Provincial capital",
    "longitude": 34.743996359218556,
    "latitude": -4.816998033034761,
    "popRank": 6,
    "popClass": 50,
    "portId": "000 to 99"
  },
  {
    "objectId": 2406,
    "cityName": "Musoma",
    "adminName": "Mara",
    "countryName": "Tanzania",
    "countryCode": "TZ",
    "status": "Provincial capital",
    "longitude": 33.803001333268696,
    "latitude": -1.4959979919645432,
    "popRank": 5,
    "popClass": 100,
    "portId": "000 to 249"
  },
  {
    "objectId": 2405,
    "cityName": "Nairobi",
    "adminName": "Nairobi Area",
    "countryName": "Kenya",
    "countryCode": "KE",
    "status": "National and provincial capital",
    "longitude": 36.803997348645254,
    "latitude": -1.2699989445998323,
    "popRank": 2,
    "popClass": 1,
    "portId": "000"
  },
  {
    "objectId": 2404,
    "cityName": "Embu",
    "adminName": "Eastern",
    "countryName": "Kenya",
    "countryCode": "KE",
    "status": "Provincial capital",
    "longitude": 37.44900035879738,
    "latitude": -0.5239979476544948,
    "popRank": 7,
    "popClass": "Less than 50",
    "portId": "000"
  },
  {
    "objectId": 2403,
    "cityName": "Nyeri",
    "adminName": "Central",
    "countryName": "Kenya",
    "countryCode": "KE",
    "status": "Provincial capital",
    "longitude": 36.951003433295654,
    "latitude": -0.41699704112916003,
    "popRank": 6,
    "popClass": 50,
    "portId": "000 to 99"
  },
  {
    "objectId": 2402,
    "cityName": "Nakuru",
    "adminName": "Rift Valley",
    "countryName": "Kenya",
    "countryCode": "KE",
    "status": "Provincial capital",
    "longitude": 36.06900333179817,
    "latitude": -0.27999907721094597,
    "popRank": 4,
    "popClass": 250,
    "portId": "000 to 499"
  },
  {
    "objectId": 2401,
    "cityName": "Kisumu",
    "adminName": "Nyanza",
    "countryName": "Kenya",
    "countryCode": "KE",
    "status": "Provincial capital",
    "longitude": 34.74700236988525,
    "latitude": -0.09500406733736506,
    "popRank": 5,
    "popClass": 100,
    "portId": "000 to 249"
  },
  {
    "objectId": 2400,
    "cityName": "Songea",
    "adminName": "Ruvuma",
    "countryName": "Tanzania",
    "countryCode": "TZ",
    "status": "Provincial capital",
    "longitude": 35.65099839386042,
    "latitude": -10.682001035987247,
    "popRank": 5,
    "popClass": 100,
    "portId": "000 to 249"
  },
  {
    "objectId": 2399,
    "cityName": "Iringa",
    "adminName": "Iringa",
    "countryName": "Tanzania",
    "countryCode": "TZ",
    "status": "Provincial capital",
    "longitude": 35.69200243135154,
    "latitude": -7.776998947037776,
    "popRank": 5,
    "popClass": 100,
    "portId": "000 to 249"
  },
  {
    "objectId": 2398,
    "cityName": "Morogoro",
    "adminName": "Morogoro",
    "countryName": "Tanzania",
    "countryCode": "TZ",
    "status": "Provincial capital",
    "longitude": 37.66100428763232,
    "latitude": -6.82200003192421,
    "popRank": 4,
    "popClass": 250,
    "portId": "000 to 499"
  },
  {
    "objectId": 2397,
    "cityName": "Dar es Salaam",
    "adminName": "Dar es Salaam",
    "countryName": "Tanzania",
    "countryCode": "TZ",
    "status": "National and provincial capital",
    "longitude": 39.253347298189766,
    "latitude": -6.8173560640001885,
    "popRank": 2,
    "popClass": 1,
    "portId": "000"
  },
  {
    "objectId": 2396,
    "cityName": "Kibaha",
    "adminName": "Pwani",
    "countryName": "Tanzania",
    "countryCode": "TZ",
    "status": "Provincial capital",
    "longitude": 38.91670240122542,
    "latitude": -6.766703998218972,
    "popRank": 7,
    "popClass": "Less than 50",
    "portId": "000"
  },
  {
    "objectId": 2395,
    "cityName": "Dodoma",
    "adminName": "Dodoma",
    "countryName": "Tanzania",
    "countryCode": "TZ",
    "status": "Provincial capital",
    "longitude": 35.738001427607514,
    "latitude": -6.174998972072663,
    "popRank": 5,
    "popClass": 100,
    "portId": "000 to 249"
  },
  {
    "objectId": 2394,
    "cityName": "Zanzibar",
    "adminName": "Zanzibar Urban/West",
    "countryName": "Tanzania",
    "countryCode": "TZ",
    "status": "Provincial capital",
    "longitude": 39.2030013771778,
    "latitude": -6.165998977791401,
    "popRank": 4,
    "popClass": 250,
    "portId": "000 to 499"
  },
  {
    "objectId": 2393,
    "cityName": "Koani",
    "adminName": "Zanzibar Central/South",
    "countryName": "Tanzania",
    "countryCode": "TZ",
    "status": "Provincial capital",
    "longitude": 39.28329934402737,
    "latitude": -6.133302054501085,
    "popRank": 7,
    "popClass": "Less than 50",
    "portId": "000"
  },
  {
    "objectId": 2392,
    "cityName": "Mkokotoni",
    "adminName": "Zanzibar North",
    "countryName": "Tanzania",
    "countryCode": "TZ",
    "status": "Provincial capital",
    "longitude": 39.25999841741441,
    "latitude": -5.8789980201573355,
    "popRank": 7,
    "popClass": "Less than 50",
    "portId": "000"
  },
  {
    "objectId": 2391,
    "cityName": "Mtwara",
    "adminName": "Mtwara",
    "countryName": "Tanzania",
    "countryCode": "TZ",
    "status": "Provincial capital",
    "longitude": 40.184001415769075,
    "latitude": -10.275003078147764,
    "popRank": 6,
    "popClass": 50,
    "portId": "000 to 99"
  },
  {
    "objectId": 2390,
    "cityName": "Lindi",
    "adminName": "Lindi",
    "countryName": "Tanzania",
    "countryCode": "TZ",
    "status": "Provincial capital",
    "longitude": 39.7070013878953,
    "latitude": -10.001997073559803,
    "popRank": 7,
    "popClass": "Less than 50",
    "portId": "000"
  },
  {
    "objectId": 2389,
    "cityName": "Mkoani",
    "adminName": "Pemba South",
    "countryName": "Tanzania",
    "countryCode": "TZ",
    "status": "Provincial capital",
    "longitude": 39.6666993320859,
    "latitude": -5.349996076295446,
    "popRank": 7,
    "popClass": "Less than 50",
    "portId": "000"
  },
  {
    "objectId": 2388,
    "cityName": "Tanga",
    "adminName": "Tanga",
    "countryName": "Tanzania",
    "countryCode": "TZ",
    "status": "Provincial capital",
    "longitude": 39.0989973797179,
    "latitude": -5.068998038393529,
    "popRank": 5,
    "popClass": 100,
    "portId": "000 to 249"
  },
  {
    "objectId": 2387,
    "cityName": "Wete",
    "adminName": "Pemba North",
    "countryName": "Tanzania",
    "countryCode": "TZ",
    "status": "Provincial capital",
    "longitude": 39.70522839597223,
    "latitude": -5.058036069850526,
    "popRank": 7,
    "popClass": "Less than 50",
    "portId": "000"
  },
  {
    "objectId": 2386,
    "cityName": "Mombasa",
    "adminName": "Coast",
    "countryName": "Kenya",
    "countryCode": "KE",
    "status": "Provincial capital",
    "longitude": 39.65489141107784,
    "latitude": -4.050945050154661,
    "popRank": 3,
    "popClass": 500,
    "portId": "000 to 999"
  },
  {
    "objectId": 2385,
    "cityName": "Arusha",
    "adminName": "Arusha",
    "countryName": "Tanzania",
    "countryCode": "TZ",
    "status": "Provincial capital",
    "longitude": 36.67400132930888,
    "latitude": -3.3660000766352023,
    "popRank": 4,
    "popClass": 250,
    "portId": "000 to 499"
  },
  {
    "objectId": 2384,
    "cityName": "Moshi",
    "adminName": "Kilimanjaro",
    "countryName": "Tanzania",
    "countryCode": "TZ",
    "status": "Provincial capital",
    "longitude": 37.3429983116381,
    "latitude": -3.3389999283077767,
    "popRank": 5,
    "popClass": 100,
    "portId": "000 to 249"
  },
  {
    "objectId": 2383,
    "cityName": "Kismaayo",
    "adminName": "Jubbada Hoose",
    "countryName": "Somalia",
    "countryCode": "SO",
    "status": "Provincial capital",
    "longitude": 42.539004332261385,
    "latitude": -0.34599594624517643,
    "popRank": 7,
    "popClass": "Less than 50",
    "portId": "000"
  },
  {
    "objectId": 2382,
    "cityName": "Butare",
    "adminName": "Butare",
    "countryName": "Rwanda",
    "countryCode": "RW",
    "status": "Provincial capital",
    "longitude": 29.732004361338003,
    "latitude": -2.6000010414279537,
    "popRank": 6,
    "popClass": 50,
    "portId": "000 to 99"
  },
  {
    "objectId": 2381,
    "cityName": "Kibungo",
    "adminName": "Kibungo",
    "countryName": "Rwanda",
    "countryCode": "RW",
    "status": "Provincial capital",
    "longitude": 30.533301391988545,
    "latitude": -2.1666959808251547,
    "popRank": 7,
    "popClass": "Less than 50",
    "portId": "000"
  },
  {
    "objectId": 2380,
    "cityName": "Gitarama",
    "adminName": "Gitarama",
    "countryName": "Rwanda",
    "countryCode": "RW",
    "status": "Provincial capital",
    "longitude": 29.75799638321445,
    "latitude": -2.0760029924485055,
    "popRank": 6,
    "popClass": 50,
    "portId": "000 to 99"
  },
  {
    "objectId": 2379,
    "cityName": "Kigali",
    "adminName": "Kigali",
    "countryName": "Rwanda",
    "countryCode": "RW",
    "status": "National and provincial capital",
    "longitude": 30.0590013954959,
    "latitude": -1.9500030725109523,
    "popRank": 3,
    "popClass": 500,
    "portId": "000 to 999"
  },
  {
    "objectId": 2378,
    "cityName": "Byumba",
    "adminName": "Byumba",
    "countryName": "Rwanda",
    "countryCode": "RW",
    "status": "Provincial capital",
    "longitude": 30.062997329411047,
    "latitude": -1.580003951162526,
    "popRank": 6,
    "popClass": 50,
    "portId": "000 to 99"
  },
  {
    "objectId": 2377,
    "cityName": "Cyangugu",
    "adminName": "Cyangugu",
    "countryName": "Rwanda",
    "countryCode": "RW",
    "status": "Provincial capital",
    "longitude": 28.88979331630685,
    "latitude": -2.496069029359739,
    "popRank": 6,
    "popClass": 50,
    "portId": "000 to 99"
  },
  {
    "objectId": 2376,
    "cityName": "Gikongoro",
    "adminName": "Gikongoro",
    "countryName": "Rwanda",
    "countryCode": "RW",
    "status": "Provincial capital",
    "longitude": 29.566701410440718,
    "latitude": -2.483297993455982,
    "popRank": 7,
    "popClass": "Less than 50",
    "portId": "000"
  },
  {
    "objectId": 2375,
    "cityName": "Kibuye",
    "adminName": "Kibuye",
    "countryName": "Rwanda",
    "countryCode": "RW",
    "status": "Provincial capital",
    "longitude": 29.349999400525263,
    "latitude": -2.0500020344544474,
    "popRank": 7,
    "popClass": "Less than 50",
    "portId": "000"
  },
  {
    "objectId": 2374,
    "cityName": "Gisenyi",
    "adminName": "Gisenyi",
    "countryName": "Rwanda",
    "countryCode": "RW",
    "status": "Provincial capital",
    "longitude": 29.257002383163638,
    "latitude": -1.6949970564854906,
    "popRank": 6,
    "popClass": 50,
    "portId": "000 to 99"
  },
  {
    "objectId": 2373,
    "cityName": "Ruhengeri",
    "adminName": "Ruhengeri",
    "countryName": "Rwanda",
    "countryCode": "RW",
    "status": "Provincial capital",
    "longitude": 29.629998413577514,
    "latitude": -1.5010020523306469,
    "popRank": 6,
    "popClass": 50,
    "portId": "000 to 99"
  },
  {
    "objectId": 2372,
    "cityName": "Buluko",
    "adminName": "Kivu",
    "countryName": "Congo",
    "countryCode": "DRC",
    "status": "CG",
    "longitude": "Provincial capital",
    "latitude": 28.528002349931086,
    "popRank": -0.7569989396010578,
    "popClass": 7,
    "portId": "Less than 50"
  },
  {
    "objectId": 2371,
    "cityName": "Mbarara",
    "adminName": "Southern",
    "countryName": "Uganda",
    "countryCode": "UG",
    "status": "Provincial capital",
    "longitude": 30.648996313509574,
    "latitude": -0.6059969210354899,
    "popRank": 7,
    "popClass": "Less than 50",
    "portId": "000"
  },
  {
    "objectId": 2370,
    "cityName": "Ruyigi",
    "adminName": "Ruyigi",
    "countryName": "Burundi",
    "countryCode": "BY",
    "status": "Provincial capital",
    "longitude": 30.243996405369476,
    "latitude": -3.4810019525920946,
    "popRank": 7,
    "popClass": "Less than 50",
    "portId": "000"
  },
  {
    "objectId": 2369,
    "cityName": "Gitega",
    "adminName": "Gitega",
    "countryName": "Burundi",
    "countryCode": "BY",
    "status": "Provincial capital",
    "longitude": 29.93329835324269,
    "latitude": -3.4333019498047084,
    "popRank": 7,
    "popClass": "Less than 50",
    "portId": "000"
  },
  {
    "objectId": 2368,
    "cityName": "Bujumbura",
    "adminName": "Bujumbura",
    "countryName": "Burundi",
    "countryCode": "BY",
    "status": "National and provincial capital",
    "longitude": 29.356002320257435,
    "latitude": -3.3720029963673364,
    "popRank": 4,
    "popClass": 250,
    "portId": "000 to 499"
  },
  {
    "objectId": 2367,
    "cityName": "Muramvya",
    "adminName": "Muramvya",
    "countryName": "Burundi",
    "countryCode": "BY",
    "status": "Provincial capital",
    "longitude": 29.611998425015006,
    "latitude": -3.2609970543256033,
    "popRank": 7,
    "popClass": "Less than 50",
    "portId": "000"
  },
  {
    "objectId": 2366,
    "cityName": "Karusi",
    "adminName": "Karuzi",
    "countryName": "Burundi",
    "countryCode": "BY",
    "status": "Provincial capital",
    "longitude": 30.16299629135455,
    "latitude": -3.099996016629067,
    "popRank": 7,
    "popClass": "Less than 50",
    "portId": "000"
  },
  {
    "objectId": 2365,
    "cityName": "Bubanza",
    "adminName": "Bubanza",
    "countryName": "Burundi",
    "countryCode": "BY",
    "status": "Provincial capital",
    "longitude": 29.366703321070077,
    "latitude": -3.083301032201868,
    "popRank": 7,
    "popClass": "Less than 50",
    "portId": "000"
  },
  {
    "objectId": 2364,
    "cityName": "Ngozi",
    "adminName": "Ngozi",
    "countryName": "Burundi",
    "countryCode": "BY",
    "status": "Provincial capital",
    "longitude": 29.825001378699625,
    "latitude": -2.912003932206383,
    "popRank": 7,
    "popClass": "Less than 50",
    "portId": "000"
  },
  {
    "objectId": 2363,
    "cityName": "Kayanza",
    "adminName": "Kayanza",
    "countryName": "Burundi",
    "countryCode": "BY",
    "status": "Provincial capital",
    "longitude": 29.566701410440718,
    "latitude": -2.899997927258427,
    "popRank": 7,
    "popClass": "Less than 50",
    "portId": "000"
  },
  {
    "objectId": 2362,
    "cityName": "Muyinga",
    "adminName": "Muyinga",
    "countryName": "Burundi",
    "countryCode": "BY",
    "status": "Provincial capital",
    "longitude": 30.326004314868047,
    "latitude": -2.855996980701869,
    "popRank": 6,
    "popClass": 50,
    "portId": "000 to 99"
  },
  {
    "objectId": 2361,
    "cityName": "Kigoma",
    "adminName": "Kigoma",
    "countryName": "Tanzania",
    "countryCode": "TZ",
    "status": "Provincial capital",
    "longitude": 29.619000369596844,
    "latitude": -4.8760020590883775,
    "popRank": 5,
    "popClass": 100,
    "portId": "000 to 249"
  },
  {
    "objectId": 2360,
    "cityName": "Makamba",
    "adminName": "Makamba",
    "countryName": "Burundi",
    "countryCode": "BY",
    "status": "Provincial capital",
    "longitude": 29.799999445555272,
    "latitude": -4.1333039504940645,
    "popRank": 7,
    "popClass": "Less than 50",
    "portId": "000"
  },
  {
    "objectId": 2359,
    "cityName": "Bururi",
    "adminName": "Bururi",
    "countryName": "Burundi",
    "countryCode": "BY",
    "status": "Provincial capital",
    "longitude": 29.611998425015006,
    "latitude": -3.951000035884004,
    "popRank": 7,
    "popClass": "Less than 50",
    "portId": "000"
  },
  {
    "objectId": 2358,
    "cityName": "Rutana",
    "adminName": "Rutana",
    "countryName": "Burundi",
    "countryCode": "BY",
    "status": "Provincial capital",
    "longitude": 29.99300436097801,
    "latitude": -3.9310019976221056,
    "popRank": 7,
    "popClass": "Less than 50",
    "portId": "000"
  },
  {
    "objectId": 2357,
    "cityName": "Cankuzo",
    "adminName": "Cankuzo",
    "countryName": "Burundi",
    "countryCode": "BY",
    "status": "Provincial capital",
    "longitude": 30.51669643067186,
    "latitude": -3.1667039689462615,
    "popRank": 7,
    "popClass": "Less than 50",
    "portId": "000"
  },
  {
    "objectId": 2356,
    "cityName": "Mbuji-Mayi",
    "adminName": "Kasai-Oriental",
    "countryName": "Congo",
    "countryCode": "DRC",
    "status": "CG",
    "longitude": "Provincial capital",
    "latitude": 23.666697289729257,
    "popRank": -6.149997038928297,
    "popClass": 3,
    "portId": 500
  },
  {
    "objectId": 2355,
    "cityName": "Tabora",
    "adminName": "Tabora",
    "countryName": "Tanzania",
    "countryCode": "TZ",
    "status": "Provincial capital",
    "longitude": 32.82599739407621,
    "latitude": -5.01800391788902,
    "popRank": 5,
    "popClass": 100,
    "portId": "000 to 249"
  },
  {
    "objectId": 2354,
    "cityName": "Shinyanga",
    "adminName": "Shinyanga",
    "countryName": "Tanzania",
    "countryCode": "TZ",
    "status": "Provincial capital",
    "longitude": 33.42099637245597,
    "latitude": -3.664997937615983,
    "popRank": 5,
    "popClass": 100,
    "portId": "000 to 249"
  },
  {
    "objectId": 2353,
    "cityName": "Mwanza",
    "adminName": "Mwanza",
    "countryName": "Tanzania",
    "countryCode": "TZ",
    "status": "Provincial capital",
    "longitude": 32.88899735404499,
    "latitude": -2.5149960573802654,
    "popRank": 4,
    "popClass": 250,
    "portId": "000 to 499"
  },
  {
    "objectId": 2352,
    "cityName": "Bukoba",
    "adminName": "Ziwa Magharibi",
    "countryName": "Tanzania",
    "countryCode": "TZ",
    "status": "Provincial capital",
    "longitude": 31.80799835351019,
    "latitude": -1.3220010260715975,
    "popRank": 6,
    "popClass": 50,
    "portId": "000 to 99"
  },
  {
    "objectId": 2351,
    "cityName": "Masaka",
    "adminName": "South Buganda",
    "countryName": "Uganda",
    "countryCode": "UG",
    "status": "Provincial capital",
    "longitude": 31.734000349560745,
    "latitude": -0.33499806774816504,
    "popRank": 6,
    "popClass": 50,
    "portId": "000 to 99"
  },
  {
    "objectId": 2350,
    "cityName": "Serowe",
    "adminName": "Central",
    "countryName": "Botswana",
    "countryCode": "BC",
    "status": "Provincial capital",
    "longitude": 26.71100137158192,
    "latitude": -22.38900299296367,
    "popRank": 7,
    "popClass": "Less than 50",
    "portId": "000"
  },
  {
    "objectId": 2349,
    "cityName": "Francistown",
    "adminName": "North-East",
    "countryName": "Botswana",
    "countryCode": "BC",
    "status": "Provincial capital",
    "longitude": 27.50000429023413,
    "latitude": -21.170996926909396,
    "popRank": 6,
    "popClass": 50,
    "portId": "000 to 99"
  },
  {
    "objectId": 2348,
    "cityName": "Maun",
    "adminName": "Ngamiland",
    "countryName": "Botswana",
    "countryCode": "BC",
    "status": "Provincial capital",
    "longitude": 23.41800033820519,
    "latitude": -19.99400399994753,
    "popRank": 7,
    "popClass": "Less than 50",
    "portId": "000"
  },
  {
    "objectId": 2347,
    "cityName": "Livingstone",
    "adminName": "Southern",
    "countryName": "Zambia",
    "countryCode": "ZA",
    "status": "Provincial capital",
    "longitude": 25.857999302627576,
    "latitude": -17.85799802075441,
    "popRank": 5,
    "popClass": 100,
    "portId": "000 to 249"
  },
  {
    "objectId": 2346,
    "cityName": "Kasane",
    "adminName": "Chobe",
    "countryName": "Botswana",
    "countryCode": "BC",
    "status": "Provincial capital",
    "longitude": 25.083297316307092,
    "latitude": -17.833302066895627,
    "popRank": 7,
    "popClass": "Less than 50",
    "portId": "000"
  },
  {
    "objectId": 2345,
    "cityName": "Mongu",
    "adminName": "Western",
    "countryName": "Zambia",
    "countryCode": "ZA",
    "status": "Provincial capital",
    "longitude": 23.131998405420802,
    "latitude": -15.276996056897383,
    "popRank": 6,
    "popClass": 50,
    "portId": "000 to 99"
  },
  {
    "objectId": 2344,
    "cityName": "Solwezi",
    "adminName": "North-Western",
    "countryName": "Zambia",
    "countryCode": "ZA",
    "status": "Provincial capital",
    "longitude": 26.40099636501924,
    "latitude": -12.179997013492494,
    "popRank": 7,
    "popClass": "Less than 50",
    "portId": "000"
  },
  {
    "objectId": 2343,
    "cityName": "Lumumbashi",
    "adminName": "Shaba",
    "countryName": "Congo",
    "countryCode": "DRC",
    "status": "CG",
    "longitude": "Other",
    "latitude": 27.5499993858889,
    "popRank": -11.680002038291368,
    "popClass": 2,
    "portId": 1
  },
  {
    "objectId": 2342,
    "cityName": "Tete",
    "adminName": "Tete",
    "countryName": "Mozambique",
    "countryCode": "MZ",
    "status": "Provincial capital",
    "longitude": 33.58700130503494,
    "latitude": -16.164000053277334,
    "popRank": 5,
    "popClass": 100,
    "portId": "000 to 249"
  },
  {
    "objectId": 2341,
    "cityName": "Lusaka",
    "adminName": "Lusaka",
    "countryName": "Zambia",
    "countryCode": "ZA",
    "status": "National and provincial capital",
    "longitude": 28.170000297413026,
    "latitude": -15.4299959596787,
    "popRank": 2,
    "popClass": 1,
    "portId": "000"
  },
  {
    "objectId": 2340,
    "cityName": "Kabwe",
    "adminName": "Central",
    "countryName": "Zambia",
    "countryCode": "ZA",
    "status": "Provincial capital",
    "longitude": 28.447002401399796,
    "latitude": -14.446998036871653,
    "popRank": 5,
    "popClass": 100,
    "portId": "000 to 249"
  },
  {
    "objectId": 2339,
    "cityName": "Chipata",
    "adminName": "Eastern",
    "countryName": "Zambia",
    "countryCode": "ZA",
    "status": "Provincial capital",
    "longitude": 32.64499831811776,
    "latitude": -13.632002930859333,
    "popRank": 6,
    "popClass": 50,
    "portId": "000 to 99"
  },
  {
    "objectId": 2338,
    "cityName": "Ndola",
    "adminName": "Copperbelt",
    "countryName": "Zambia",
    "countryCode": "ZA",
    "status": "Provincial capital",
    "longitude": 28.634004397090393,
    "latitude": -12.968001072778652,
    "popRank": 4,
    "popClass": 250,
    "portId": "000 to 499"
  },
  {
    "objectId": 2337,
    "cityName": "Mansa",
    "adminName": "Luapula",
    "countryName": "Zambia",
    "countryCode": "ZA",
    "status": "Provincial capital",
    "longitude": 28.89099936121403,
    "latitude": -11.2020029855679,
    "popRank": 7,
    "popClass": "Less than 50",
    "portId": "000"
  },
  {
    "objectId": 2336,
    "cityName": "Mbeya",
    "adminName": "Mbeya",
    "countryName": "Tanzania",
    "countryCode": "TZ",
    "status": "Provincial capital",
    "longitude": 33.43899636101847,
    "latitude": -8.891001015632154,
    "popRank": 4,
    "popClass": 250,
    "portId": "000 to 499"
  },
  {
    "objectId": 2335,
    "cityName": "Sumbawanga",
    "adminName": "Rukwa",
    "countryName": "Tanzania",
    "countryCode": "TZ",
    "status": "Provincial capital",
    "longitude": 31.617000423904443,
    "latitude": -7.9669980172774855,
    "popRank": 6,
    "popClass": 50,
    "portId": "000 to 99"
  },
  {
    "objectId": 2334,
    "cityName": "Kasama",
    "adminName": "Northern",
    "countryName": "Zambia",
    "countryCode": "ZA",
    "status": "Provincial capital",
    "longitude": 31.14999941516163,
    "latitude": -10.266695963946962,
    "popRank": 6,
    "popClass": 50,
    "portId": "000 to 99"
  },
  {
    "objectId": 2333,
    "cityName": "Karibib",
    "adminName": "Karibib",
    "countryName": "Namibia",
    "countryCode": "WA",
    "status": "Provincial capital",
    "longitude": 15.852996282559815,
    "latitude": -21.939002947933655,
    "popRank": 7,
    "popClass": "Less than 50",
    "portId": "000"
  },
  {
    "objectId": 2332,
    "cityName": "Omaruru",
    "adminName": "Omaruru",
    "countryName": "Namibia",
    "countryCode": "WA",
    "status": "Provincial capital",
    "longitude": 15.950997360287547,
    "latitude": -21.436001962065824,
    "popRank": 7,
    "popClass": "Less than 50",
    "portId": "000"
  },
  {
    "objectId": 2331,
    "cityName": "Otjiwarongo",
    "adminName": "Otjiwarongo",
    "countryName": "Namibia",
    "countryCode": "WA",
    "status": "Provincial capital",
    "longitude": 16.647003427061776,
    "latitude": -20.464001917755787,
    "popRank": 7,
    "popClass": "Less than 50",
    "portId": "000"
  },
  {
    "objectId": 2330,
    "cityName": "Outjo",
    "adminName": "Outjo",
    "countryName": "Namibia",
    "countryCode": "WA",
    "status": "Provincial capital",
    "longitude": 16.146000325409688,
    "latitude": -20.10799808042079,
    "popRank": 7,
    "popClass": "Less than 50",
    "portId": "000"
  },
  {
    "objectId": 2329,
    "cityName": "Namibe",
    "adminName": "Namibe",
    "countryName": "Angola",
    "countryCode": "AO",
    "status": "Provincial capital",
    "longitude": 12.150000382278138,
    "latitude": -15.16666495721727,
    "popRank": 6,
    "popClass": 50,
    "portId": "000 to 99"
  },
  {
    "objectId": 2328,
    "cityName": "Lubango",
    "adminName": "Huila",
    "countryName": "Angola",
    "countryCode": "AO",
    "status": "Provincial capital",
    "longitude": 13.491999382452946,
    "latitude": -14.919002940496926,
    "popRank": 5,
    "popClass": 100,
    "portId": "000 to 249"
  },
  {
    "objectId": 2327,
    "cityName": "Huambo",
    "adminName": "Huambo",
    "countryName": "Angola",
    "countryCode": "AO",
    "status": "Provincial capital",
    "longitude": 15.735996356903511,
    "latitude": -12.760002013976441,
    "popRank": 5,
    "popClass": 100,
    "portId": "000 to 249"
  },
  {
    "objectId": 2326,
    "cityName": "Benguela",
    "adminName": "Benguela",
    "countryName": "Angola",
    "countryCode": "AO",
    "status": "Provincial capital",
    "longitude": 13.406004309673136,
    "latitude": -12.57699595220102,
    "popRank": 5,
    "popClass": 100,
    "portId": "000 to 249"
  },
  {
    "objectId": 2325,
    "cityName": "Onjiva",
    "adminName": "Cunene",
    "countryName": "Angola",
    "countryCode": "AO",
    "status": "Provincial capital",
    "longitude": 15.783300357294763,
    "latitude": -17.049995923206353,
    "popRank": 7,
    "popClass": "Less than 50",
    "portId": "000"
  },
  {
    "objectId": 2324,
    "cityName": "Cabinda",
    "adminName": "Cabinda",
    "countryName": "Angola",
    "countryCode": "AO",
    "status": "Provincial capital",
    "longitude": 12.189996293318304,
    "latitude": -5.556995944764289,
    "popRank": 6,
    "popClass": 50,
    "portId": "000 to 99"
  },
  {
    "objectId": 2323,
    "cityName": "Pointe Noire",
    "adminName": "Kouilou",
    "countryName": "Congo",
    "countryCode": "CF",
    "status": "Other",
    "longitude": 12.058092412876706,
    "latitude": -4.638707924575013,
    "popRank": 3,
    "popClass": 500,
    "portId": "000 to 999"
  },
  {
    "objectId": 2322,
    "cityName": "Loubomo",
    "adminName": "Niari",
    "countryName": "Congo",
    "countryCode": "CF",
    "status": "Provincial capital",
    "longitude": 12.672000381558178,
    "latitude": -4.194000046961522,
    "popRank": 5,
    "popClass": 100,
    "portId": "000 to 249"
  },
  {
    "objectId": 2321,
    "cityName": "Madingou",
    "adminName": "Bouenza",
    "countryName": "Congo",
    "countryCode": "CF",
    "status": "Provincial capital",
    "longitude": 13.554000317572019,
    "latitude": -4.164002989568643,
    "popRank": 7,
    "popClass": "Less than 50",
    "portId": "000"
  },
  {
    "objectId": 2320,
    "cityName": "Sibiti",
    "adminName": "Lekoumou",
    "countryName": "Congo",
    "countryCode": "CF",
    "status": "Provincial capital",
    "longitude": 13.356999302750465,
    "latitude": -3.690999061093703,
    "popRank": 7,
    "popClass": "Less than 50",
    "portId": "000"
  },
  {
    "objectId": 2319,
    "cityName": "Djambala",
    "adminName": "Plateaux",
    "countryName": "Congo",
    "countryCode": "CF",
    "status": "Provincial capital",
    "longitude": 14.760000378678313,
    "latitude": -2.5430040011913237,
    "popRank": 7,
    "popClass": "Less than 50",
    "portId": "000"
  },
  {
    "objectId": 2318,
    "cityName": "Masuku",
    "adminName": "Haut-Ogooue",
    "countryName": "Gabon",
    "countryCode": "GB",
    "status": "Provincial capital",
    "longitude": 13.60299638837708,
    "latitude": -1.631996931033039,
    "popRank": 7,
    "popClass": "Less than 50",
    "portId": "000"
  },
  {
    "objectId": 2317,
    "cityName": "Kaulomoutou",
    "adminName": "Ogooue-Lolo",
    "countryName": "Gabon",
    "countryCode": "GB",
    "status": "Provincial capital",
    "longitude": 12.503997399279797,
    "latitude": -1.1269980609494714,
    "popRank": 7,
    "popClass": "Less than 50",
    "portId": "000"
  },
  {
    "objectId": 2316,
    "cityName": "Owando",
    "adminName": "Cuvette",
    "countryName": "Congo",
    "countryCode": "CF",
    "status": "Provincial capital",
    "longitude": 15.91669838969395,
    "latitude": -0.48330005493263567,
    "popRank": 7,
    "popClass": "Less than 50",
    "portId": "000"
  },
  {
    "objectId": 2315,
    "cityName": "Ngunza",
    "adminName": "Cuanza Sul",
    "countryName": "Angola",
    "countryCode": "AO",
    "status": "Provincial capital",
    "longitude": 13.849002410121303,
    "latitude": -11.208995994032149,
    "popRank": 7,
    "popClass": "Less than 50",
    "portId": "000"
  },
  {
    "objectId": 2314,
    "cityName": "Malange",
    "adminName": "Malanje",
    "countryName": "Angola",
    "countryCode": "AO",
    "status": "Provincial capital",
    "longitude": 16.34100329053183,
    "latitude": -9.541998009398851,
    "popRank": 6,
    "popClass": 50,
    "portId": "000 to 99"
  },
  {
    "objectId": 2313,
    "cityName": "Ndalatando",
    "adminName": "Cuanza Norte",
    "countryName": "Angola",
    "countryCode": "AO",
    "status": "Provincial capital",
    "longitude": 14.913999306309336,
    "latitude": -9.297998973471637,
    "popRank": 7,
    "popClass": "Less than 50",
    "portId": "000"
  },
  {
    "objectId": 2312,
    "cityName": "Luanda",
    "adminName": "Luanda",
    "countryName": "Angola",
    "countryCode": "AO",
    "status": "National and provincial capital",
    "longitude": 13.23500441832931,
    "latitude": -8.811998951316601,
    "popRank": 2,
    "popClass": 1,
    "portId": "000"
  },
  {
    "objectId": 2311,
    "cityName": "Caxito",
    "adminName": "Bengo",
    "countryName": "Angola",
    "countryCode": "AO",
    "status": "Provincial capital",
    "longitude": 13.662999439280414,
    "latitude": -8.577998934520332,
    "popRank": 7,
    "popClass": "Less than 50",
    "portId": "000"
  },
  {
    "objectId": 2310,
    "cityName": "Uige",
    "adminName": "Uige",
    "countryName": "Angola",
    "countryCode": "AO",
    "status": "Provincial capital",
    "longitude": 15.14999737280499,
    "latitude": -7.749998964194038,
    "popRank": 6,
    "popClass": 50,
    "portId": "000 to 99"
  },
  {
    "objectId": 2309,
    "cityName": "Mbanza Congo",
    "adminName": "Zaire",
    "countryName": "Angola",
    "countryCode": "AO",
    "status": "Provincial capital",
    "longitude": 14.266701368773456,
    "latitude": -6.30000003264416,
    "popRank": 7,
    "popClass": "Less than 50",
    "portId": "000"
  },
  {
    "objectId": 2308,
    "cityName": "Matadi",
    "adminName": "Bas-Zaire",
    "countryName": "Congo",
    "countryCode": "DRC",
    "status": "CG",
    "longitude": "Provincial capital",
    "latitude": 13.471002319341325,
    "popRank": -5.816996919554589,
    "popClass": 5,
    "portId": 100
  },
  {
    "objectId": 2307,
    "cityName": "Kinshasa",
    "adminName": "Kinshasa",
    "countryName": "Congo",
    "countryCode": "DRC",
    "status": "CG",
    "longitude": "National and provincial capital",
    "latitude": 15.29900134167116,
    "popRank": -4.32099899174878,
    "popClass": 1,
    "portId": 5
  },
  {
    "objectId": 2306,
    "cityName": "Saurimo",
    "adminName": "Lunda Sul",
    "countryName": "Angola",
    "countryCode": "AO",
    "status": "Provincial capital",
    "longitude": 20.39100336483457,
    "latitude": -9.660995984754537,
    "popRank": 7,
    "popClass": "Less than 50",
    "portId": "000"
  },
  {
    "objectId": 2305,
    "cityName": "Lucapa",
    "adminName": "Lunda Norte",
    "countryName": "Angola",
    "countryCode": "AO",
    "status": "Provincial capital",
    "longitude": 20.734002337855575,
    "latitude": -8.424000006889337,
    "popRank": 7,
    "popClass": "Less than 50",
    "portId": "000"
  },
  {
    "objectId": 2304,
    "cityName": "Kahemba",
    "adminName": "Bandundu",
    "countryName": "Congo",
    "countryCode": "DRC",
    "status": "CG",
    "longitude": "Other",
    "latitude": 18.9999993577371,
    "popRank": -7.329995976556893,
    "popClass": 7,
    "portId": "Less than 50"
  },
  {
    "objectId": 2303,
    "cityName": "Kananga",
    "adminName": "Kasai-Occidental",
    "countryName": "Congo",
    "countryCode": "DRC",
    "status": "CG",
    "longitude": "Provincial capital",
    "latitude": 22.40299837218828,
    "popRank": -5.892003049954984,
    "popClass": 4,
    "portId": 250
  },
  {
    "objectId": 2302,
    "cityName": "Kinkala",
    "adminName": "Pool",
    "countryName": "Congo",
    "countryCode": "CF",
    "status": "Provincial capital",
    "longitude": 14.761998428377721,
    "latitude": -4.355999944024089,
    "popRank": 7,
    "popClass": "Less than 50",
    "portId": "000"
  },
  {
    "objectId": 2301,
    "cityName": "Brazzaville",
    "adminName": "Pool",
    "countryName": "Congo",
    "countryCode": "CF",
    "status": "National capital",
    "longitude": 15.285141423290838,
    "latitude": -4.2851879969623985,
    "popRank": 2,
    "popClass": 1,
    "portId": "000"
  },
  {
    "objectId": 2300,
    "cityName": "Bandundu",
    "adminName": "Bandundu",
    "countryName": "Congo",
    "countryCode": "DRC",
    "status": "CG",
    "longitude": "Provincial capital",
    "latitude": 17.38600231394159,
    "popRank": -3.31499702001313,
    "popClass": 5,
    "portId": 100
  },
  {
    "objectId": 2299,
    "cityName": "Karasburg",
    "adminName": "Karasburg",
    "countryName": "Namibia",
    "countryCode": "WA",
    "status": "Provincial capital",
    "longitude": 18.74500244331287,
    "latitude": -28.022004028819314,
    "popRank": 7,
    "popClass": "Less than 50",
    "portId": "000"
  },
  {
    "objectId": 2298,
    "cityName": "Keetmanshoop",
    "adminName": "Keetmanshoop",
    "countryName": "Namibia",
    "countryCode": "WA",
    "status": "Provincial capital",
    "longitude": 18.13300233573665,
    "latitude": -26.574002981485204,
    "popRank": 7,
    "popClass": "Less than 50",
    "portId": "000"
  },
  {
    "objectId": 2297,
    "cityName": "Bethanien",
    "adminName": "Bethanien",
    "countryName": "Namibia",
    "countryCode": "WA",
    "status": "Provincial capital",
    "longitude": 17.1610022914266,
    "latitude": -26.502003027235176,
    "popRank": 7,
    "popClass": "Less than 50",
    "portId": "000"
  },
  {
    "objectId": 2296,
    "cityName": "Tsabong",
    "adminName": "Kgalagadi",
    "countryName": "Botswana",
    "countryCode": "BC",
    "status": "Provincial capital",
    "longitude": 22.39700438857372,
    "latitude": -26.017002029929845,
    "popRank": 7,
    "popClass": "Less than 50",
    "portId": "000"
  },
  {
    "objectId": 2295,
    "cityName": "Maltahohe",
    "adminName": "Maltahohe",
    "countryName": "Namibia",
    "countryCode": "WA",
    "status": "Provincial capital",
    "longitude": 16.972002411520265,
    "latitude": -24.839000976517024,
    "popRank": 7,
    "popClass": "Less than 50",
    "portId": "000"
  },
  {
    "objectId": 2294,
    "cityName": "Mariental",
    "adminName": "Mariental",
    "countryName": "Namibia",
    "countryCode": "WA",
    "status": "Provincial capital",
    "longitude": 17.958996433726128,
    "latitude": -24.62100306406751,
    "popRank": 7,
    "popClass": "Less than 50",
    "portId": "000"
  },
  {
    "objectId": 2293,
    "cityName": "Rehoboth",
    "adminName": "Rehoboth",
    "countryName": "Namibia",
    "countryCode": "WA",
    "status": "Provincial capital",
    "longitude": 17.081001367745017,
    "latitude": -23.319998999782573,
    "popRank": 7,
    "popClass": "Less than 50",
    "portId": "000"
  },
  {
    "objectId": 2292,
    "cityName": "Windhoek",
    "adminName": "Windhoek",
    "countryName": "Namibia",
    "countryCode": "WA",
    "status": "National and provincial capital",
    "longitude": 17.07699633222862,
    "latitude": -22.560003049791145,
    "popRank": 4,
    "popClass": 250,
    "portId": "000 to 499"
  },
  {
    "objectId": 2291,
    "cityName": "Cape Town",
    "adminName": "Western Cape",
    "countryName": "South Africa",
    "countryCode": "SF",
    "status": "Provincial capital",
    "longitude": 18.482004393973455,
    "latitude": -33.97899592268252,
    "popRank": 2,
    "popClass": 1,
    "portId": "000"
  },
  {
    "objectId": 2290,
    "cityName": "Luderitz",
    "adminName": "Luderitz",
    "countryName": "Namibia",
    "countryCode": "WA",
    "status": "Provincial capital",
    "longitude": 15.155001433171092,
    "latitude": -26.643995949918246,
    "popRank": 7,
    "popClass": "Less than 50",
    "portId": "000"
  },
  {
    "objectId": 2289,
    "cityName": "Walvis Bay",
    "adminName": "Swakopmund",
    "countryName": "Namibia",
    "countryCode": "WA",
    "status": "Other",
    "longitude": 14.61709828877241,
    "latitude": -23.1018660526673,
    "popRank": 6,
    "popClass": 50,
    "portId": "000 to 99"
  },
  {
    "objectId": 2288,
    "cityName": "Swakopmund",
    "adminName": "Swakopmund",
    "countryName": "Namibia",
    "countryCode": "WA",
    "status": "Provincial capital",
    "longitude": 14.52799841158145,
    "latitude": -22.67399696478073,
    "popRank": 7,
    "popClass": "Less than 50",
    "portId": "000"
  },
  {
    "objectId": 2287,
    "cityName": "Gobabis",
    "adminName": "Gobabis",
    "countryName": "Namibia",
    "countryCode": "WA",
    "status": "Provincial capital",
    "longitude": 18.963000355762375,
    "latitude": -22.455000027481546,
    "popRank": 7,
    "popClass": "Less than 50",
    "portId": "000"
  },
  {
    "objectId": 2286,
    "cityName": "Okahandja",
    "adminName": "Okahandja",
    "countryName": "Namibia",
    "countryCode": "WA",
    "status": "Provincial capital",
    "longitude": 16.912998385466636,
    "latitude": -21.983004059973876,
    "popRank": 7,
    "popClass": "Less than 50",
    "portId": "000"
  },
  {
    "objectId": 2285,
    "cityName": "Ghanzi",
    "adminName": "Ghanzi",
    "countryName": "Botswana",
    "countryCode": "BC",
    "status": "Provincial capital",
    "longitude": 21.646998356111993,
    "latitude": -21.705002931137386,
    "popRank": 7,
    "popClass": "Less than 50",
    "portId": "000"
  },
  {
    "objectId": 2284,
    "cityName": "Otavi",
    "adminName": "Grootfontein",
    "countryName": "Namibia",
    "countryCode": "WA",
    "status": "Provincial capital",
    "longitude": 17.342001367385024,
    "latitude": -19.63999804682828,
    "popRank": 7,
    "popClass": "Less than 50",
    "portId": "000"
  },
  {
    "objectId": 2283,
    "cityName": "Tsumeb",
    "adminName": "Tsumeb",
    "countryName": "Namibia",
    "countryCode": "WA",
    "status": "Provincial capital",
    "longitude": 17.711001298400106,
    "latitude": -19.248003003002193,
    "popRank": 7,
    "popClass": "Less than 50",
    "portId": "000"
  },
  {
    "objectId": 2282,
    "cityName": "Inhambane",
    "adminName": "Inhambane",
    "countryName": "Mozambique",
    "countryCode": "MZ",
    "status": "Provincial capital",
    "longitude": 35.388000344521004,
    "latitude": -23.87400304227249,
    "popRank": 6,
    "popClass": 50,
    "portId": "000 to 99"
  },
  {
    "objectId": 2281,
    "cityName": "Toliara",
    "adminName": "Toliara",
    "countryName": "Madagascar",
    "countryCode": "MA",
    "status": "Provincial capital",
    "longitude": 43.66666840077986,
    "latitude": -23.34999605717544,
    "popRank": 5,
    "popClass": 100,
    "portId": "000 to 249"
  },
  {
    "objectId": 2280,
    "cityName": "Menongue",
    "adminName": "Cuando Cubango",
    "countryName": "Angola",
    "countryCode": "AO",
    "status": "Provincial capital",
    "longitude": 17.86670139804619,
    "latitude": -14.799996029023623,
    "popRank": 7,
    "popClass": "Less than 50",
    "portId": "000"
  },
  {
    "objectId": 2279,
    "cityName": "Kuito",
    "adminName": "Bie",
    "countryName": "Angola",
    "countryCode": "AO",
    "status": "Provincial capital",
    "longitude": 16.938999343460694,
    "latitude": -12.380004038980722,
    "popRank": 5,
    "popClass": 100,
    "portId": "000 to 249"
  },
  {
    "objectId": 2278,
    "cityName": "Luena",
    "adminName": "Moxico",
    "countryName": "Angola",
    "countryCode": "AO",
    "status": "Provincial capital",
    "longitude": 19.90500334267955,
    "latitude": -11.790999044215496,
    "popRank": 7,
    "popClass": "Less than 50",
    "portId": "000"
  },
  {
    "objectId": 2277,
    "cityName": "Tchibanga",
    "adminName": "Nyanga",
    "countryName": "Gabon",
    "countryCode": "GB",
    "status": "Provincial capital",
    "longitude": 11.02699831940251,
    "latitude": -2.856996005551574,
    "popRank": 7,
    "popClass": "Less than 50",
    "portId": "000"
  },
  {
    "objectId": 2276,
    "cityName": "Mouila",
    "adminName": "Ngounie",
    "countryName": "Gabon",
    "countryCode": "GB",
    "status": "Provincial capital",
    "longitude": 11.004003372075148,
    "latitude": -1.884995961241526,
    "popRank": 7,
    "popClass": "Less than 50",
    "portId": "000"
  },
  {
    "objectId": 2275,
    "cityName": "Port Gentil",
    "adminName": "Ogooue-Maritime",
    "countryName": "Gabon",
    "countryCode": "GB",
    "status": "Provincial capital",
    "longitude": 8.782002320102237,
    "latitude": -0.7209989624760444,
    "popRank": 5,
    "popClass": 100,
    "portId": "000 to 249"
  },
  {
    "objectId": 2274,
    "cityName": "Lambarene",
    "adminName": "Moyen-Ogooue",
    "countryName": "Gabon",
    "countryCode": "GB",
    "status": "Provincial capital",
    "longitude": 10.212003378873845,
    "latitude": -0.7059960484626346,
    "popRank": 7,
    "popClass": "Less than 50",
    "portId": "000"
  },
  {
    "objectId": 2273,
    "cityName": "Bulawayo",
    "adminName": "Matabeleland North",
    "countryName": "Zimbabwe",
    "countryCode": "ZI",
    "status": "Other",
    "longitude": 28.710000285255575,
    "latitude": -20.199996072932727,
    "popRank": 3,
    "popClass": 500,
    "portId": "000 to 999"
  },
  {
    "objectId": 2272,
    "cityName": "Chimoio",
    "adminName": "Manica",
    "countryName": "Mozambique",
    "countryCode": "MZ",
    "status": "Provincial capital",
    "longitude": 33.483339362298295,
    "latitude": -19.1333340801673,
    "popRank": 4,
    "popClass": 250,
    "portId": "000 to 499"
  },
  {
    "objectId": 2271,
    "cityName": "Harare",
    "adminName": "Mashonaland East",
    "countryName": "Zimbabwe",
    "countryCode": "ZI",
    "status": "National and provincial capital",
    "longitude": 31.020003395825288,
    "latitude": -17.829999013060952,
    "popRank": 2,
    "popClass": 1,
    "portId": "000"
  },
  {
    "objectId": 2270,
    "cityName": "Mocambique",
    "adminName": "Nampula",
    "countryName": "Mozambique",
    "countryCode": "MZ",
    "status": "Other",
    "longitude": 40.691034410989744,
    "latitude": -15.066134958211888,
    "popRank": 7,
    "popClass": "Less than 50",
    "portId": "000"
  },
  {
    "objectId": 2269,
    "cityName": "Pemba",
    "adminName": "Cabo Delgado",
    "countryName": "Mozambique",
    "countryCode": "MZ",
    "status": "Provincial capital",
    "longitude": 40.50000040594633,
    "latitude": -12.966659993205667,
    "popRank": 5,
    "popClass": 100,
    "portId": "000 to 249"
  },
  {
    "objectId": 2268,
    "cityName": "Moroni",
    "adminName": "Comoros",
    "countryName": "Comoros",
    "countryCode": "CN",
    "status": "National capital",
    "longitude": 43.243002432349556,
    "latitude": -11.700000076553264,
    "popRank": 7,
    "popClass": "Less than 50",
    "portId": "000"
  },
  {
    "objectId": 2267,
    "cityName": "Masvingo",
    "adminName": "Masvingo",
    "countryName": "Zimbabwe",
    "countryCode": "ZI",
    "status": "Provincial capital",
    "longitude": 31.500000332764504,
    "latitude": -20.999997035565578,
    "popRank": 6,
    "popClass": 50,
    "portId": "000 to 99"
  },
  {
    "objectId": 2266,
    "cityName": "Gweru",
    "adminName": "Midlands",
    "countryName": "Zimbabwe",
    "countryCode": "ZI",
    "status": "Provincial capital",
    "longitude": 29.750004349900507,
    "latitude": -19.466703062617043,
    "popRank": 5,
    "popClass": 100,
    "portId": "000 to 249"
  },
  {
    "objectId": 2265,
    "cityName": "Mutare",
    "adminName": "Manicaland",
    "countryName": "Zimbabwe",
    "countryCode": "ZI",
    "status": "Provincial capital",
    "longitude": 32.666697362911094,
    "latitude": -18.966698985814652,
    "popRank": 5,
    "popClass": 100,
    "portId": "000 to 249"
  },
  {
    "objectId": 2264,
    "cityName": "Gifu",
    "adminName": "Chubu",
    "countryName": "Japan",
    "countryCode": "JA",
    "status": "Provincial capital",
    "longitude": 136.76199331588978,
    "latitude": 35.409996043470045,
    "popRank": 4,
    "popClass": 250,
    "portId": "000 to 499"
  },
  {
    "objectId": 2263,
    "cityName": "Osaka",
    "adminName": "Kinki",
    "countryName": "Japan",
    "countryCode": "JA",
    "status": "Provincial capital",
    "longitude": 135.51900335441,
    "latitude": 34.635996038831244,
    "popRank": 2,
    "popClass": 1,
    "portId": "000"
  },
  {
    "objectId": 2262,
    "cityName": "Kobe",
    "adminName": "Kinki",
    "countryName": "Japan",
    "countryCode": "JA",
    "status": "Other",
    "longitude": 135.22121137285276,
    "latitude": 34.690149076903374,
    "popRank": 2,
    "popClass": 1,
    "portId": "000"
  },
  {
    "objectId": 2261,
    "cityName": "Kyoto",
    "adminName": "Kinki",
    "countryName": "Japan",
    "countryCode": "JA",
    "status": "Other",
    "longitude": 135.7550014209057,
    "latitude": 35.009001005362684,
    "popRank": 2,
    "popClass": 1,
    "portId": "000"
  },
  {
    "objectId": 2260,
    "cityName": "Nagoya",
    "adminName": "Chubu",
    "countryName": "Japan",
    "countryCode": "JA",
    "status": "Provincial capital",
    "longitude": 136.92100540548816,
    "latitude": 35.154998963562164,
    "popRank": 2,
    "popClass": 1,
    "portId": "000"
  },
  {
    "objectId": 2259,
    "cityName": "Yokohama",
    "adminName": "Kanto",
    "countryName": "Japan",
    "countryCode": "JA",
    "status": "Other",
    "longitude": 139.6199973837336,
    "latitude": 35.43699602631381,
    "popRank": 2,
    "popClass": 1,
    "portId": "000"
  },
  {
    "objectId": 2258,
    "cityName": "Kawasaki",
    "adminName": "Kanto",
    "countryName": "Japan",
    "countryCode": "JA",
    "status": "Other",
    "longitude": 139.72721441191766,
    "latitude": 35.50457707041613,
    "popRank": 2,
    "popClass": 1,
    "portId": "000"
  },
  {
    "objectId": 2257,
    "cityName": "Tokyo",
    "adminName": "Kanto",
    "countryName": "Japan",
    "countryCode": "JA",
    "status": "National and provincial capital",
    "longitude": 139.80900636524117,
    "latitude": 35.683002048058,
    "popRank": 1,
    "popClass": 5,
    "portId": "000"
  },
  {
    "objectId": 2256,
    "cityName": "Hagatna",
    "adminName": "Guam",
    "countryName": "Guam",
    "countryCode": "GQ",
    "status": "National and provincial capital",
    "longitude": 144.7469914230547,
    "latitude": 13.46699706029628,
    "popRank": 7,
    "popClass": "Less than 50",
    "portId": "000"
  },
  {
    "objectId": 2255,
    "cityName": "Saipan",
    "adminName": "Northern Mariana Is.",
    "countryName": "Northern Mariana Is.",
    "countryCode": "CQ",
    "status": "National and provincial capital",
    "longitude": 145.73500234234544,
    "latitude": 15.149996983792695,
    "popRank": 7,
    "popClass": "Less than 50",
    "portId": "000"
  },
  {
    "objectId": 2254,
    "cityName": "Sendai",
    "adminName": "Tohoku",
    "countryName": "Japan",
    "countryCode": "JA",
    "status": "Provincial capital",
    "longitude": 140.89101332674326,
    "latitude": 38.25399605666648,
    "popRank": 6,
    "popClass": 50,
    "portId": "000 to 99"
  },
  {
    "objectId": 2253,
    "cityName": "Aomori",
    "adminName": "Tohoku",
    "countryName": "Japan",
    "countryCode": "JA",
    "status": "Other",
    "longitude": 140.75000139119103,
    "latitude": 40.81666507883895,
    "popRank": 4,
    "popClass": 250,
    "portId": "000 to 499"
  },
  {
    "objectId": 2252,
    "cityName": "Sapporo",
    "adminName": "Hokkaido",
    "countryName": "Japan",
    "countryCode": "JA",
    "status": "Provincial capital",
    "longitude": 141.34599029281927,
    "latitude": 43.055001022796986,
    "popRank": 2,
    "popClass": 1,
    "portId": "000"
  },
  {
    "objectId": 2251,
    "cityName": "Tarawa",
    "adminName": "Kiribati",
    "countryName": "Kiribati",
    "countryCode": "KR",
    "status": "National capital",
    "longitude": 172.92111342807752,
    "latitude": 1.3407569811548918,
    "popRank": 7,
    "popClass": "Less than 50",
    "portId": "000"
  },
  {
    "objectId": 2250,
    "cityName": "Palikir",
    "adminName": "Micronesia",
    "countryName": "Micronesia",
    "countryCode": "FM",
    "status": "National capital",
    "longitude": 158.21670628564235,
    "latitude": 6.966701959272195,
    "popRank": 7,
    "popClass": "Less than 50",
    "portId": "000"
  },
  {
    "objectId": 2249,
    "cityName": "Majuro",
    "adminName": "Marshall Is.",
    "countryName": "Marshall Is.",
    "countryCode": "RM",
    "status": "National capital",
    "longitude": 171.36765940836486,
    "latitude": 7.120980057836017,
    "popRank": 7,
    "popClass": "Less than 50",
    "portId": "000"
  },
  {
    "objectId": 2248,
    "cityName": "Anadyr",
    "adminName": "Chukotskiy avtonomnyy okrug",
    "countryName": "Russia",
    "countryCode": "RS",
    "status": "Provincial capital",
    "longitude": 177.48025244264605,
    "latitude": 64.7552700642248,
    "popRank": 7,
    "popClass": "Less than 50",
    "portId": "000"
  },
  {
    "objectId": 2247,
    "cityName": "Palana",
    "adminName": "Koryakskiy avtonomnyy okrug",
    "countryName": "Russia",
    "countryCode": "RS",
    "status": "Provincial capital",
    "longitude": 159.9830014160211,
    "latitude": 59.08300207284712,
    "popRank": 7,
    "popClass": "Less than 50",
    "portId": "000"
  },
  {
    "objectId": 2246,
    "cityName": "Yuzhno-Sakhalinsk",
    "adminName": "Sakhalinskaya oblast'",
    "countryName": "Russia",
    "countryCode": "RS",
    "status": "Provincial capital",
    "longitude": 142.74999932971437,
    "latitude": 46.96000199826633,
    "popRank": 5,
    "popClass": 100,
    "portId": "000 to 249"
  },
  {
    "objectId": 2245,
    "cityName": "Khabarovsk",
    "adminName": "Khabarovskiy kray",
    "countryName": "Russia",
    "countryCode": "RS",
    "status": "Provincial capital",
    "longitude": 135.12699937446635,
    "latitude": 48.43199701777748,
    "popRank": 3,
    "popClass": 500,
    "portId": "000 to 999"
  },
  {
    "objectId": 2244,
    "cityName": "Petropavloski-Kamchatskiy",
    "adminName": "Kamchatskaya oblast'",
    "countryName": "Russia",
    "countryCode": "RS",
    "status": "Provincial capital",
    "longitude": 158.72000431467816,
    "latitude": 53.19999908133208,
    "popRank": 5,
    "popClass": 100,
    "portId": "000 to 249"
  },
  {
    "objectId": 2243,
    "cityName": "Okhotsk",
    "adminName": "Khabarovskiy kray",
    "countryName": "Russia",
    "countryCode": "RS",
    "status": "Other",
    "longitude": 143.2474203720826,
    "latitude": 59.382746927064865,
    "popRank": 7,
    "popClass": "Less than 50",
    "portId": "000"
  },
  {
    "objectId": 2242,
    "cityName": "Magadan",
    "adminName": "Magadanskaya oblast'",
    "countryName": "Russia",
    "countryCode": "RS",
    "status": "Provincial capital",
    "longitude": 150.833304328409,
    "latitude": 59.63329795750496,
    "popRank": 6,
    "popClass": 50,
    "portId": "000 to 99"
  },
  {
    "objectId": 2241,
    "cityName": "Birobidzhan",
    "adminName": "Yevreyskaya avtonomnaya oblast'",
    "countryName": "Russia",
    "countryCode": "RS",
    "status": "Provincial capital",
    "longitude": 132.899994427611,
    "latitude": 48.816999053139305,
    "popRank": 6,
    "popClass": 50,
    "portId": "000 to 99"
  },
  {
    "objectId": 2240,
    "cityName": "Aginskoye",
    "adminName": "Aginskiy Buryatskiy avtonomnyy okrug",
    "countryName": "Russia",
    "countryCode": "RS",
    "status": "Provincial capital",
    "longitude": 114.53300133604924,
    "latitude": 51.16699807474918,
    "popRank": 7,
    "popClass": "Less than 50",
    "portId": "000"
  },
  {
    "objectId": 2239,
    "cityName": "Harbin",
    "adminName": "Heilongjiang",
    "countryName": "China",
    "countryCode": "CH",
    "status": "Provincial capital",
    "longitude": 126.62299834257048,
    "latitude": 45.755000962009724,
    "popRank": 2,
    "popClass": 1,
    "portId": "000"
  },
  {
    "objectId": 2238,
    "cityName": "Baruun Urt",
    "adminName": "Suhbaatar",
    "countryName": "Mongolia",
    "countryCode": "MG",
    "status": "Provincial capital",
    "longitude": 113.28000341932093,
    "latitude": 46.67900396036438,
    "popRank": 7,
    "popClass": "Less than 50",
    "portId": "000"
  },
  {
    "objectId": 2237,
    "cityName": "Qiqihar",
    "adminName": "Heilongjiang",
    "countryName": "China",
    "countryCode": "CH",
    "status": "Other",
    "longitude": 123.96496539026091,
    "latitude": 47.34400500877841,
    "popRank": 3,
    "popClass": 500,
    "portId": "000 to 999"
  },
  {
    "objectId": 2236,
    "cityName": "Choybalsan",
    "adminName": "Dornod",
    "countryName": "Mongolia",
    "countryCode": "MG",
    "status": "Provincial capital",
    "longitude": 114.50600135320552,
    "latitude": 48.06000001221331,
    "popRank": 7,
    "popClass": "Less than 50",
    "portId": "000"
  },
  {
    "objectId": 2235,
    "cityName": "Blagoveshchensk",
    "adminName": "Amurskaya oblast'",
    "countryName": "Russia",
    "countryCode": "RS",
    "status": "Provincial capital",
    "longitude": 127.53333934100104,
    "latitude": 50.28333304215791,
    "popRank": 5,
    "popClass": 100,
    "portId": "000 to 249"
  },
  {
    "objectId": 2234,
    "cityName": "Chita",
    "adminName": "Chitinskaya oblast'",
    "countryName": "Russia",
    "countryCode": "RS",
    "status": "Provincial capital",
    "longitude": 113.49900035662014,
    "latitude": 52.04500207684788,
    "popRank": 4,
    "popClass": 250,
    "portId": "000 to 499"
  },
  {
    "objectId": 2233,
    "cityName": "Yakutsk",
    "adminName": "Respublika Sakha(Yakutiya)",
    "countryName": "Russia",
    "countryCode": "RS",
    "status": "Provincial capital",
    "longitude": 129.83000430316744,
    "latitude": 62.00999991879056,
    "popRank": 5,
    "popClass": 100,
    "portId": "000 to 249"
  },
  {
    "objectId": 2232,
    "cityName": "Ust' Ordynskiy",
    "adminName": "Ust'-Ordynskiy Buryatskiy avt.okrug",
    "countryName": "Russia",
    "countryCode": "RS",
    "status": "Provincial capital",
    "longitude": 104.69999739765869,
    "latitude": 52.83299703453277,
    "popRank": 7,
    "popClass": "Less than 50",
    "portId": "000"
  },
  {
    "objectId": 2231,
    "cityName": "Mandalgovi",
    "adminName": "Dundgovi",
    "countryName": "Mongolia",
    "countryCode": "MG",
    "status": "Provincial capital",
    "longitude": 106.26499837064907,
    "latitude": 45.76100404722553,
    "popRank": 7,
    "popClass": "Less than 50",
    "portId": "000"
  },
  {
    "objectId": 2230,
    "cityName": "Arvayheer",
    "adminName": "Ovorhangay",
    "countryName": "Mongolia",
    "countryCode": "MG",
    "status": "Provincial capital",
    "longitude": 102.77199941338533,
    "latitude": 46.26800096700851,
    "popRank": 7,
    "popClass": "Less than 50",
    "portId": "000"
  },
  {
    "objectId": 2229,
    "cityName": "Tsetserleg",
    "adminName": "Arhangay",
    "countryName": "Mongolia",
    "countryCode": "MG",
    "status": "Provincial capital",
    "longitude": 101.45799942090399,
    "latitude": 47.45799892376805,
    "popRank": 7,
    "popClass": "Less than 50",
    "portId": "000"
  },